Store Number,Profile Key,Phone,Address,Lat,Lng,Store Hours,Pharmacy Hours,Clinic Hours,Services
10996,walgreens-429-brookline-ave-boston-ma-02215,(866) 287-1515,"429 Brookline Ave, Joslin Diabetes Center,Boston, MA 02215",42.339098,-71.108429,,M  F: 8:00AM-7:00PM Sat:      CLOSED       Sun:       CLOSED       ,,"Online ordering, Medication Compounding, HIV Medication Support"
11140,walgreens-1329-e.-university-blvd.-takoma-park-md-20912,(301) 445-8159,"1329 E. University Blvd.,Takoma Park, MD 20912",38.987963,-76.986339,Open 24 Hours,Open 24 Hours,,"Open 24 hours, Digital photo pickup, Pharmacy drive-thru, Online ordering"
11580,walgreens-1215-dunn-ave-ste-2-jacksonville-fl-32218,(904) 751-1517,"1215 Dunn Ave Ste 2, Family Care Clinic,Jacksonville, FL 32218",30.4686832,-81.6692532,,M  F: 8:00AM-6:00PM Sat:      CLOSED       Sun:       CLOSED       ,,"Online ordering, Medication Compounding"
11583,walgreens-1000-w-broadway-st-ste101-oviedo-fl-32765,(407) 366-7007,"1000 W Broadway St Ste101, Oviedo Medical Center,Oviedo, FL 32765",28.669997,-81.2081203,,M  F: 8:00AM-6:00PM Sat:      CLOSED       Sun:       CLOSED       ,,"Online ordering, Medication Compounding"
12762,walgreens-130-prison-st-lahaina-hi-96761,(808) 661-4747,"130 Prison St, Maui Medical Group,Lahaina, HI 96761",20.8783333,-156.6825,,M  F: 8:00AM-5:00PM Sat: 8:00AM-12:00PM Sun:       CLOSED       ,,Online ordering
12763,walgreens-2180-main-st-%23102-wailuku-hi-96793,(808) 244-7252,"2180 Main St #102, Maui Medical Group,Wailuku, HI 96793",20.8911111,-156.5047222,,M  F: 8:00AM-7:00PM Sat: 8:00AM-12:00PM Sun: 8:00AM-12:00PM,,Online ordering
13072,walgreens-8333-n-davis-hwy-pensacola-fl-32514,(850) 494-2432,"8333 N Davis Hwy, Medical Center Clinic,Pensacola, FL 32514",30.487333,-87.222614,,M  F: 8:30AM-6:00PM Sat:      CLOSED       Sun:       CLOSED       ,,Online ordering
13106,walgreens-11801-s.-ave-o-chicago-il-60617,(773) 731-2147,"11801 S. Ave O,Chicago, IL 60617",41.6809035,-87.5400651,M F: 8:00AM-10:00PM Sat: 8:00AM-10:00PM Sun: 8:00AM-10:00PM,M  F: 8:00AM-10:00PM Sat: 9:00AM-6:00PM Sun: 10:00AM-6:00PM,,"Pharmacy drive-thru, Online ordering"
13577,walgreens-4341-di-paolo-center-glenview-il-60025,(847) 824-6073,"4341 Di Paolo Center,Glenview, IL 60025",42.0673092,-87.8619482,,M  F: 8:00AM-5:00PM Sat:      CLOSED       Sun:       CLOSED       ,,Online ordering
13583,walgreens-901-hyde-st-san-francisco-ca-94109,(415) 409-4230,"901 Hyde St, Saint Francis Memorial Hospital,San Francisco, CA 94109",37.7929789,-122.4212424,,M  F: 9:00AM-6:00PM Sat:      CLOSED       Sun:       CLOSED       ,,"Immunizations, Online ordering, Shingles Vaccine"
13600,walgreens-110-century-blvd-west-palm-beach-fl-33417,(561) 697-9670,"110 Century Blvd,West Palm Beach, FL 33417",26.7149621,-80.1204978,,M  F: 8:30AM-5:00PM Sat: 10:00AM-5:00PM Sun: 10:00AM-2:00PM,,Online ordering
13803,walgreens-675-main-st-woburn-ma-01801,(781) 933-1850,"675 Main St,Woburn, MA 01801",42.4917492,-71.1540475,,M  F: 8:30AM-7:30PM Sat: 8:30AM-5:00PM Sun: 9:00AM-2:00PM,,Online ordering
13883,walgreens-19-north-main-st-sherborn-ma-01770,(508) 653-7770,"19 North Main St,Sherborn, MA 01770",42.245585,-71.369792,,M  F: 8:00AM-8:00PM Sat: 8:00AM-6:00PM Sun: 9:00AM-3:00PM,,Online ordering
13944,walgreens-60-temple-st-new-haven-ct-06519,(203) 777-7758,"60 Temple St, Temple Medical Center,New Haven, CT 06519",41.2967231,-72.9431038,,M  F: 9:00AM-5:00PM Sat:      CLOSED       Sun:       CLOSED       ,,"Digital photo pickup, Online ordering"
13946,walgreens-150-sargent-dr-new-haven-ct-06519,(203) 777-7878,"150 Sargent Dr,New Haven, CT 06519",41.2918989,-72.9217134,,M  F: 9:00AM-6:00PM Sat: 9:00AM-12:00PM Sun:       CLOSED       ,,"Digital photo pickup, Online ordering"
1403,walgreens-3201-divisadero-san-francisco-ca-94123,(415) 931-6417,"3201 Divisadero,San Francisco, CA 94123",37.799152,-122.442927,Open 24 Hours,Open 24 Hours,,"Open 24 hours, Digital photo pickup, Printer cartridge refills, Online ordering, Medication Compounding, Film roll processing"
2147,walgreens-875-blake-wilbur-drive%2c-suite-cc-1101-mc-palo-alto-ca-94305,(650) 838-0429,"875 Blake Wilbur Drive, Suite CC-1101 MC, Stanford Cancer Center-Pacific Campus,Palo Alto, CA 94305",37.4135757,-122.1689284,,M  F: 8:00AM-7:00PM Sat: 9:00AM-3:00PM Sun:       CLOSED       ,,Online ordering
3193,walgreens-7150-w-atlantic-blvd-margate-fl-33063,(954) 978-9892,"7150 W Atlantic Blvd,Margate, FL 33063",26.234609,-80.221213,Open 24 Hours,Open 24 Hours,,"Open 24 hours, Digital photo pickup, Printer cartridge refills, Pharmacy drive-thru, Online ordering, Film roll processing"
3288,walgreens-650-delaware-ave-buffalo-ny-14202,(716) 883-0232,"650 Delaware Ave,Buffalo, NY 14202",42.9017037,-78.8732172,Open 24 Hours,Open 24 Hours,,"Open 24 hours, Digital photo pickup, Printer cartridge refills, Pharmacy drive-thru, Online ordering, Redbox DVD rental, Film roll processing"
3747,walgreens-101-w-imperial-hwy-la-habra-ca-90631,(714) 447-9576,"101 W Imperial Hwy,La Habra, CA 90631",33.917707,-117.946493,,M  F: 9:00AM-9:00PM Sat: 10:00AM-6:00PM Sun: 10:00AM-6:00PM,,"Pharmacy drive-thru, Online ordering"
3769,walgreens-1616-e-thomas-phoenix-az-85016,(602) 263-8307,"1616 E Thomas,Phoenix, AZ 85016",33.4802312,-112.0465284,M F: 7:00AM-10:00PM Sat: 8:00AM-10:00PM Sun: 8:00AM-10:00PM,M  F: 9:00AM-9:00PM Sat: 10:00AM-6:00PM Sun: 10:00AM-6:00PM,,"Digital photo pickup, Pharmacy drive-thru, Online ordering, Redbox DVD rental, Film roll processing"
3815,walgreens-111-s-main-st-orange-ca-92868,(714) 289-3650,"111 S Main St,Orange, CA 92868",33.787619,-117.866858,,M  F: 9:00AM-9:00PM Sat: 10:00AM-6:00PM Sun: 10:00AM-6:00PM,,"Pharmacy drive-thru, Online ordering"
3902,walgreens-7966-florence-ave-downey-ca-90240,(562) 806-0888,"7966 Florence Ave,Downey, CA 90240",33.953422,-118.130506,,M  F: 9:00AM-9:00PM Sat: 10:00AM-5:00PM Sun: 10:00AM-5:00PM,,"Pharmacy drive-thru, Online ordering"
3916,walgreens-758-arthur-kill-rd-staten-island-ny-10312,(718) 317-5085,"758 Arthur Kill Rd,Staten Island, NY 10312",40.5601748,-74.1654118,Open 24 Hours,Open 24 Hours,,"Open 24 hours, Digital photo pickup, Printer cartridge refills, Pharmacy drive-thru, Online ordering, Film roll processing"
4174,walgreens-3053-sw-martin-downs-blvd-palm-city-fl-34990,(772) 288-0105,"3053 Sw Martin Downs Blvd,Palm City, FL 34990",27.1726095,-80.2949741,Open 24 Hours,Open 24 Hours,,"Open 24 hours, Digital photo pickup, Printer cartridge refills, Pharmacy drive-thru, Online ordering, Film roll processing"
4227,walgreens-903-e-huntington-dr-monrovia-ca-91016,(626) 256-3247,"903 E Huntington Dr,Monrovia, CA 91016",34.139918,-117.98589,,M  F: 9:00AM-9:00PM Sat: 10:00AM-6:00PM Sun: 10:00AM-6:00PM,,"Pharmacy drive-thru, Online ordering"
4255,walgreens-31100-groesbeck-hwy.-fraser-mi-48026,(586) 294-5729,"31100 Groesbeck Hwy.,Fraser, MI 48026",42.524669,-82.945195,Open 24 Hours,Open 24 Hours,,"Open 24 hours, Digital photo pickup, Printer cartridge refills, Pharmacy drive-thru, Liquor department (Beer & Wine), Online ordering, Film roll processing"
4318,walgreens-4129-18th-st-san-francisco-ca-94114,(415) 551-7837,"4129 18th St,San Francisco, CA 94114",37.7608157,-122.4356851,,M  F: 9:00AM-9:00PM Sat: 9:00AM-5:00PM Sun:       CLOSED       ,,"Immunizations, Online ordering, HIV Medication Support, Shingles Vaccine"
4382,walgreens-795-e-foothill-blvd-pomona-ca-91767,(909) 624-3017,"795 E Foothill Blvd,Pomona, CA 91767",34.107433,-117.737228,,M  F: 9:00AM-9:00PM Sat: 10:00AM-6:00PM Sun: 10:00AM-6:00PM,,"Pharmacy drive-thru, Online ordering"
4474,walgreens-2501-w-magnolia-blvd-burbank-ca-91505,(818) 841-1685,"2501 W Magnolia Blvd,Burbank, CA 91505",34.172105,-118.335188,,M  F: 9:00AM-9:00PM Sat: 10:00AM-5:00PM Sun: 10:00AM-5:00PM,,"Pharmacy drive-thru, Online ordering"
4535,walgreens-170-n-main-st-randolph-ma-02368,(781) 963-7713,"170 N Main St,Randolph, MA 02368",42.1656906,-71.0433649,Open 24 Hours,Open 24 Hours,,"Open 24 hours, Digital photo pickup, Printer cartridge refills, Pharmacy drive-thru, Online ordering, Film roll processing"
4642,walgreens-5755-20th-st-vero-beach-fl-32966,(772) 778-1772,"5755 20th St,Vero Beach, FL 32966",27.638218,-80.446072,Open 24 Hours,Open 24 Hours,,"Open 24 hours, Digital photo pickup, Printer cartridge refills, Pharmacy drive-thru, Online ordering, Film roll processing"
4708,walgreens-35800-hwy-27-haines-city-fl-33844,(863) 422-6661,"35800 Hwy 27,Haines City, FL 33844",28.120808,-81.64051,Open 24 Hours,Open 24 Hours,,"Open 24 hours, Digital photo pickup, Printer cartridge refills, Online ordering, Medication Compounding, Film roll processing"
4713,walgreens-3148-w-159th-st-markham-il-60426,(708) 339-1184,"3148 W 159th St,Markham, IL 60426",41.601066,-87.693736,M F: 7:00AM-10:00PM Sat: 7:00AM-10:00PM Sun: 7:00AM-10:00PM,M  F: 8:00AM-10:00PM Sat: 9:00AM-6:00PM Sun: 10:00AM-6:00PM,,"Digital photo pickup, Pharmacy drive-thru, Online ordering, Film roll processing"
5407,walgreens-295-main-st.-manchester-ct-06040,(860) 649-8747,"295 Main St.,Manchester, CT 06040",41.782911,-72.522614,Open 24 Hours,Open 24 Hours,,"Open 24 hours, Digital photo pickup, Printer cartridge refills, Pharmacy drive-thru, Online ordering, Film roll processing, Shingles Vaccine"
5920,walgreens-1060-west-camp-wisdom-rd.-dallas-tx-75232,(972) 228-6738,"1060 West Camp Wisdom Rd.,Dallas, TX 75232",32.6618886,-96.839278,M F: 8:00AM-10:00PM Sat: 8:00AM-10:00PM Sun: 8:00AM-10:00PM,M  F: 9:00AM-9:00PM Sat: 9:00AM-6:00PM Sun: 10:00AM-6:00PM,,"Digital photo pickup, Pharmacy drive-thru, Online ordering, Redbox DVD rental, Film roll processing"
6072,walgreens-1603-washington-st.-boston-ma-02118,(617) 267-5109,"1603 Washington St.,Boston, MA 02118",42.3382867,-71.0748606,M F: 8:00AM-11:00PM Sat: 8:00AM-11:00PM Sun: 8:00AM-11:00PM,M  F: 8:00AM-10:00PM Sat: 9:00AM-7:00PM Sun: 9:00AM-7:00PM,,"Digital photo pickup, Online ordering, Film roll processing, HIV Medication Support"
621,walgreens-5731-bird-rd-miami-fl-33155,(305) 666-0757,"5731 Bird Rd,Miami, FL 33155",25.7341016,-80.2870806,Open 24 Hours,Open 24 Hours,,"Open 24 hours, Digital photo pickup, Printer cartridge refills, Online ordering, Redbox DVD rental, Film roll processing"
6369,walgreens-410-e-jolly-rd-lansing-mi-48910,(517) 882-2732,"410 E Jolly Rd,Lansing, MI 48910",42.682566,-84.548774,Open 24 Hours,Open 24 Hours,,"Open 24 hours, Digital photo pickup, Printer cartridge refills, Pharmacy drive-thru, Liquor department (Beer & Wine), Online ordering, Redbox DVD rental, Film roll processing"
6610,walgreens-2500-main-st.-ne-los-lunas-nm-87031,(505) 865-7551,"2500 Main St. Ne,Los Lunas, NM 87031",34.8064465,-106.7034011,Open 24 Hours,Open 24 Hours,,"Open 24 hours, Digital photo pickup, Printer cartridge refills, Pharmacy drive-thru, Online ordering, Redbox DVD rental, Film roll processing"
667,walgreens-1963-loiza-st-san-juan-pr-00911,(787) 728-0033,"1963 Loiza St,San Juan, PR 00911",18.4203618,-65.9879222,Open 24 Hours,Open 24 Hours,,"Open 24 hours, Digital photo pickup, Printer cartridge refills, Pharmacy drive-thru, Online ordering, Redbox DVD rental, Film roll processing"
6766,walgreens-1880-e-irvington-road-tucson-az-85714,(520) 294-1975,"1880 E Irvington Road,Tucson, AZ 85714",32.1632569,-110.9438084,Open 24 Hours,Open 24 Hours,,"Open 24 hours, Digital photo pickup, Printer cartridge refills, Pharmacy drive-thru, Online ordering, Film roll processing"
10002,walgreens-1418-e-prosperity-ave-tulare-ca-93274,(559) 684-7963,"1418 E Prosperity Ave,Tulare, CA 93274",36.226402,-119.325805,,M  F: 8:00AM-9:00PM Sat: 9:00AM-5:00PM Sun: 10:00AM-6:00PM,,"Digital photo pickup, Printer cartridge refills, Pharmacy drive-thru, Immunizations, Cafe W: coffee, baked goods and more, Online ordering, Redbox DVD rental, Medication Compounding, Film roll processing, Shingles Vaccine"
10003,walgreens-134-state-st-meriden-ct-06450,(203) 634-3241,"134 State St, Community Health Center of Meriden,Meriden, CT 06450",41.5254822,-72.7688226,,Mon: 9:00AM-6:00PM Tue: 9:00AM-6:00PM Wed: 9:00AM-6:00PM Thu: 9:00AM-5:00PM Fri: 9:00AM-5:00PM Sat:       CLOSED        Sun:      CLOSED      ,,"Online ordering, Shingles Vaccine, HIV Medication Support"
10007,walgreens-421-9th-ave-se-watertown-sd-57201,(605) 882-3788,"421 9th Ave SE,Watertown, SD 57201",44.8903332,-97.1102417,,M  F: 8:00AM-10:00PM Sat: 9:00AM-6:00PM Sun: 10:00AM-6:00PM,,"Digital photo pickup, Printer cartridge refills, Pharmacy drive-thru, Online ordering, Redbox DVD rental, Film roll processing"
10017,walgreens-13640-plaza-del-rio-peoria-az-85381,(623) 974-0436,"13640 Plaza Del Rio, Arizona Medical Clinic,Peoria, AZ 85381",33.6101651,-112.2413166,,M  F: 8:30AM-5:00PM Sat:      CLOSED       Sun:       CLOSED       ,,"Online ordering, Shingles Vaccine"
10018,walgreens-10503-w-thunderbird%2c-suite-101b-sun-city-az-85351,(623) 972-7868,"10503 W Thunderbird, Suite 101B, Banner Boswell Medical Center,Sun City, AZ 85351",33.6020658,-112.280129,,M  F: 8:30AM-5:00PM Sat:      CLOSED       Sun:       CLOSED       ,,"Online ordering, Medication Compounding, Shingles Vaccine"
1002,walgreens-3255-vicksburg-ln-n-plymouth-mn-55447,(763) 253-8917,"3255 Vicksburg LN N,Plymouth, MN 55447",45.0172611,-93.4825046,M F: 7:00AM-10:00PM Sat: 7:00AM-10:00PM Sun: 7:00AM-10:00PM,M  F: 8:00AM-10:00PM Sat: 9:00AM-6:00PM Sun: 10:00AM-6:00PM,,"Digital photo pickup, Printer cartridge refills, Pharmacy drive-thru, Cafe W: coffee, baked goods and more, Online ordering, Film roll processing"
10020,walgreens-215-westheimer-rd-houston-tx-77006,(713) 524-3494,"215 Westheimer Rd, Legacy Community Health Center,Houston, TX 77006",29.7431508,-95.38872,,Mon: 9:00AM-7:00PM Tue: 9:00AM-7:00PM Wed: 9:00AM-7:00PM Thu: 9:00AM-7:00PM Fri: 9:00AM-5:00PM Sat:       CLOSED        Sun:      CLOSED      ,,"Online ordering, HIV Medication Support"
10029,walgreens-27251-wolf-rd-bay-village-oh-44140,(440) 835-1450,"27251 Wolf Rd,Bay Village, OH 44140",41.484233,-81.92197,,M  F: 9:00AM-9:00PM Sat: 9:00AM-6:00PM Sun: 10:00AM-6:00PM,,"Digital photo pickup, Pharmacy drive-thru, Online ordering, Film roll processing, Shingles Vaccine"
10032,walgreens-8966-brecksville-rd-brecksville-oh-44141,(440) 526-5250,"8966 Brecksville Rd,Brecksville, OH 44141",41.318225,-81.6271359,,M  F: 8:00AM-10:00PM Sat: 9:00AM-6:00PM Sun: 10:00AM-6:00PM,,"Digital photo pickup, Printer cartridge refills, Immunizations, Online ordering, Film roll processing, Shingles Vaccine"
1004,walgreens-1625-taylor-rd-port-orange-fl-32128,(386) 761-5578,"1625 Taylor Rd,Port Orange, FL 32128",29.103841,-81.031254,M F: 8:00AM-10:00PM Sat: 8:00AM-10:00PM Sun: 8:00AM-10:00PM,M  F: 9:00AM-9:00PM Sat: 9:00AM-6:00PM Sun: 9:00AM-5:00PM,,"Digital photo pickup, Pharmacy drive-thru, Liquor department (Beer & Wine), Online ordering, Film roll processing"
10044,walgreens-45-castro-st-san-francisco-ca-94114,(415) 565-0991,"45 Castro St, CPMC, Davies Campus,San Francisco, CA 94114",37.7561438,-122.4325682,,M  F: 9:00AM-6:00PM Sat:      CLOSED       Sun:       CLOSED       ,,"Immunizations, Online ordering, HIV Medication Support, Shingles Vaccine"
10045,walgreens-2310-telegraph-ave.-berkeley-ca-94704,(510) 848-5121,"2310 Telegraph Ave.,Berkeley, CA 94704",37.8684182,-122.2592822,,M  F: 9:00AM-7:00PM Sat: 9:00AM-6:00PM Sun:       CLOSED       ,,"Digital photo pickup, Printer cartridge refills, Cafe W: coffee, baked goods and more, Online ordering, Redbox DVD rental, Film roll processing"
10048,walgreens-46-021-kamehameha-hwy-kaneohe-hi-96744,(808) 234-1490,"46-021 Kamehameha Hwy,Kaneohe, HI 96744",21.4193653,-157.8022652,,Open 24 Hours,,"Open 24 hours, Digital photo pickup, Printer cartridge refills, Pharmacy drive-thru, Immunizations, Cafe W: coffee, baked goods and more, Online ordering, Redbox DVD rental, Film roll processing, Shingles Vaccine"
10050,walgreens-6201-e-broad-street-columbus-oh-43213,(614) 367-7526,"6201 E Broad Street,Columbus, OH 43213",39.9799998,-82.8366314,,Open 24 Hours,,"Open 24 hours, Digital photo pickup, Pharmacy drive-thru, Immunizations, Online ordering, Redbox DVD rental, Medication Compounding, Film roll processing, Shingles Vaccine"
10051,walgreens-8060-s-mason-montgomery-rd-mason-oh-45040,(513) 770-5587,"8060 S Mason Montgomery Rd,Mason, OH 45040",39.321914,-84.311891,,M  F: 8:00AM-10:00PM Sat: 9:00AM-6:00PM Sun: 10:00AM-6:00PM,,"Digital photo pickup, Pharmacy drive-thru, Cafe W: coffee, baked goods and more, Online ordering, Film roll processing, Shingles Vaccine"
10053,walgreens-3141-tremont-road-upper-arlington-oh-43221,(614) 538-0029,"3141 Tremont Road,Upper Arlington, OH 43221",40.0209381,-83.0614019,,M  F: 8:00AM-10:00PM Sat: 9:00AM-6:00PM Sun: 10:00AM-6:00PM,,"Digital photo pickup, Pharmacy drive-thru, Online ordering, Redbox DVD rental, Film roll processing, Shingles Vaccine"
10054,walgreens-65-se-goodfellow-st-ontario-or-97914,(541) 889-6288,"65 SE Goodfellow St,Ontario, OR 97914",44.023983,-116.943987,,M  F: 8:00AM-10:00PM Sat: 10:00AM-6:00PM Sun: 9:00AM-5:00PM,,"Digital photo pickup, Pharmacy drive-thru, Online ordering, Redbox DVD rental, Film roll processing"
10056,walgreens-175-south-columbia-river-hwy-st.-helens-or-97051,(503) 397-7862,"175 South Columbia River Hwy,St. Helens, OR 97051",45.8573172,-122.8228841,,M  F: 8:00AM-10:00PM Sat: 9:00AM-6:00PM Sun: 10:00AM-6:00PM,,"Digital photo pickup, Printer cartridge refills, Pharmacy drive-thru, Immunizations, Online ordering, Redbox DVD rental, Film roll processing, Shingles Vaccine"
10057,walgreens-4713-flintridge-dr-colorado-springs-co-80918,(719) 219-3747,"4713 Flintridge Dr,Colorado Springs, CO 80918",38.90026,-104.767511,,M  F: 8:00AM-10:00PM Sat: 9:00AM-6:00PM Sun: 10:00AM-6:00PM,,"Digital photo pickup, Pharmacy drive-thru, Immunizations, Online ordering, Film roll processing, Shingles Vaccine"
10058,walgreens-235-main-ave-norwalk-ct-06851,(203) 845-8767,"235 Main Ave,Norwalk, CT 06851",41.1318578,-73.4237886,,M  F: 8:00AM-10:00PM Sat: 8:00AM-6:00PM Sun: 9:00AM-6:00PM,,"Digital photo pickup, Online ordering, Film roll processing"
10059,walgreens-1325-w.-main-st%2c-cabot-ar-72023,(501) 941-3131,"1325 W. Main St,,Cabot, AR 72023",34.9794376,-92.0320675,,M  F: 8:00AM-10:00PM Sat: 9:00AM-6:00PM Sun: 10:00AM-6:00PM,,"Digital photo pickup, Printer cartridge refills, Pharmacy drive-thru, Online ordering, Redbox DVD rental, Film roll processing"
10060,walgreens-475-hidden-valley-pkwy-norco-ca-92860,(951) 280-1270,"475 Hidden Valley Pkwy,Norco, CA 92860",33.900454,-117.557642,,M  F: 8:00AM-9:00PM Sat: 9:00AM-6:00PM Sun: 10:00AM-6:00PM,,"Digital photo pickup, Pharmacy drive-thru, Online ordering, Film roll processing"
10062,walgreens-500-howland-blvd-deltona-fl-32728,(407) 710-3120,"500 Howland Blvd,Deltona, FL 32728",28.879585,-81.164973,,M  F: 9:00AM-9:00PM Sat: 9:00AM-6:00PM Sun: 9:00AM-5:00PM,,"Digital photo pickup, Pharmacy drive-thru, Online ordering, Redbox DVD rental, Film roll processing"
10063,walgreens-6300-crain-hwy-la-plata-md-20646,(301) 392-6116,"6300 Crain Hwy,La Plata, MD 20646",38.538959,-76.983092,,Open 24 Hours,,"Open 24 hours, Digital photo pickup, Printer cartridge refills, Pharmacy drive-thru, Cafe W: coffee, baked goods and more, Online ordering, Film roll processing"
10064,walgreens-3082-avenue-u-brooklyn-ny-11229,(347) 783-5752,"3082 Avenue U,Brooklyn, NY 11229",40.6010202,-73.9362705,,M  F: 8:00AM-10:00PM Sat: 9:00AM-6:00PM Sun: 10:00AM-6:00PM,,"Digital photo pickup, Online ordering"
10066,walgreens-929-new-hwy-68-sweetwater-tn-37874,(423) 351-1277,"929 New Hwy 68,Sweetwater, TN 37874",35.591063,-84.478024,,M  F: 8:00AM-10:00PM Sat: 9:00AM-6:00PM Sun: 10:00AM-6:00PM,,"Digital photo pickup, Printer cartridge refills, Pharmacy drive-thru, Immunizations, Online ordering, Redbox DVD rental, Film roll processing, Shingles Vaccine"
10067,walgreens-1005-beacon-street-philadelphia-ms-39350,(601) 389-1119,"1005 Beacon Street,Philadelphia, MS 39350",32.7700316,-89.1286243,,M  F: 8:00AM-8:00PM Sat: 9:00AM-6:00PM Sun: 10:00AM-6:00PM,,"Digital photo pickup, Printer cartridge refills, Pharmacy drive-thru, Online ordering, Redbox DVD rental, Film roll processing"
10069,walgreens-11983-hawthorne-blvd-hawthorne-ca-90250,(310) 349-0130,"11983 Hawthorne Blvd,Hawthorne, CA 90250",33.92406,-118.353148,,M  F: 8:00AM-10:00PM Sat: 9:00AM-6:00PM Sun: 10:00AM-6:00PM,,"Digital photo pickup, Pharmacy drive-thru, Online ordering, Film roll processing"
10070,walgreens-6360-e-evans-ave-denver-co-80222,(303) 759-8853,"6360 E Evans Ave,Denver, CO 80222",39.6784386,-104.915004,,M  F: 8:00AM-10:00PM Sat: 9:00AM-6:00PM Sun: 10:00AM-6:00PM,,"Digital photo pickup, Pharmacy drive-thru, Immunizations, Online ordering, Shingles Vaccine"
10071,walgreens-1217-22nd-st--nw-washington-dc-20037,(202) 776-9084,"1217 22nd St  NW,Washington, DC 20037",38.9057478,-77.0487862,,M  F: 8:00AM-10:00PM Sat: 9:00AM-6:00PM Sun: 10:00AM-6:00PM,,"Open 24 hours, Digital photo pickup, Printer cartridge refills, Cafe W: coffee, baked goods and more, Online ordering, Film roll processing, HIV Medication Support"
10073,walgreens-2400-w-sycamore-st-kokomo-in-46901,(765) 868-0140,"2400 W Sycamore St,Kokomo, IN 46901",40.4877528,-86.1650032,,Open 24 Hours,,"Open 24 hours, Digital photo pickup, Printer cartridge refills, Pharmacy drive-thru, Online ordering, Redbox DVD rental, Medication Compounding, Film roll processing"
10074,walgreens-2345-e.-markland-ave-kokomo-in-46901,(765) 868-4798,"2345 E. Markland Ave,Kokomo, IN 46901",40.476698,-86.0998111,,M  F: 8:00AM-10:00PM Sat: 9:00AM-6:00PM Sun: 10:00AM-6:00PM,,"Digital photo pickup, Pharmacy drive-thru, Immunizations, Online ordering, Redbox DVD rental, Film roll processing, Shingles Vaccine"
10076,walgreens-2560-quarry-lake-drive-baltimore-md-21209,(410) 486-4966,"2560 Quarry Lake Drive,Baltimore, MD 21209",39.3845852,-76.6876026,,M  F: 8:00AM-10:00PM Sat: 9:00AM-6:00PM Sun: 10:00AM-6:00PM,,"Digital photo pickup, Printer cartridge refills, Pharmacy drive-thru, Cafe W: coffee, baked goods and more, Online ordering, Redbox DVD rental, Film roll processing, Shingles Vaccine"
10077,walgreens-11-state-rd-bath-me-04530,(207) 443-1786,"11 State Rd,Bath, ME 04530",43.906695,-69.831593,,M  F: 8:00AM-10:00PM Sat: 9:00AM-6:00PM Sun: 9:00AM-6:00PM,,"Digital photo pickup, Printer cartridge refills, Pharmacy drive-thru, Immunizations, Online ordering, Redbox DVD rental, Film roll processing, Shingles Vaccine"
10078,walgreens-875-e-napier-rd-benton-harbor-mi-49022,(269) 983-3463,"875 E Napier Rd,Benton Harbor, MI 49022",42.087555,-86.437336,,Open 24 Hours,,"Open 24 hours, Digital photo pickup, Printer cartridge refills, Pharmacy drive-thru, Online ordering, Redbox DVD rental, Film roll processing"
10079,walgreens-1171-e-sherman-blvd-norton-shores-mi-49444,(231) 733-8465,"1171 E Sherman Blvd,Norton Shores, MI 49444",43.2049664,-86.2173141,,M  F: 8:00AM-10:00PM Sat: 9:00AM-6:00PM Sun: 10:00AM-6:00PM,,"Digital photo pickup, Pharmacy drive-thru, Immunizations, Online ordering, Redbox DVD rental, Film roll processing, Shingles Vaccine"
10080,walgreens-7920-shaver-road-portage-mi-49024,(269) 324-9988,"7920 Shaver Road,Portage, MI 49024",42.2020109,-85.5910431,,Open 24 Hours,,"Open 24 hours, Digital photo pickup, Printer cartridge refills, Pharmacy drive-thru, Online ordering, Redbox DVD rental, Medication Compounding, Film roll processing"
10081,walgreens-5933-s-westnedge-ave-portage-mi-49002,(269) 381-4862,"5933 S Westnedge Ave,Portage, MI 49002",42.2306131,-85.5891301,,M  F: 9:00AM-9:00PM Sat: 10:00AM-6:00PM Sun: 10:00AM-6:00PM,,"Digital photo pickup, Printer cartridge refills, Pharmacy drive-thru, Immunizations, Online ordering, Redbox DVD rental, Film roll processing, Shingles Vaccine"
10082,walgreens-10941-olive-st.-blvd.-creve-coeur-mo-63141,(314) 997-0555,"10941 Olive St. Blvd.,Creve Coeur, MO 63141",38.6735597,-90.4133713,Open 24 Hours,Open 24 Hours,,"Open 24 hours, Digital photo pickup, Pharmacy drive-thru, Online ordering"
10083,walgreens-2301-10th-avenue-south-great-falls-mt-59405,(406) 727-1376,"2301 10th Avenue South,Great Falls, MT 59405",47.4942118,-111.2677668,,Open 24 Hours,,"Open 24 hours, Digital photo pickup, Printer cartridge refills, Pharmacy drive-thru, Immunizations, Online ordering, Redbox DVD rental, Film roll processing, Shingles Vaccine"
10084,walgreens-1150-11th-ave-helena-mt-59601,(406) 442-1265,"1150 11th Ave,Helena, MT 59601",46.5898583,-112.0214384,,M  F: 8:00AM-10:00PM Sat: 9:00AM-6:00PM Sun: 10:00AM-6:00PM,,"Digital photo pickup, Printer cartridge refills, Pharmacy drive-thru, Immunizations, Online ordering, Redbox DVD rental, Film roll processing, Shingles Vaccine"
10085,walgreens-825-timber-drive-garner-nc-27529,(919) 661-7344,"825 Timber Drive,Garner, NC 27529",35.68549,-78.618698,,M  F: 8:00AM-10:00PM Sat: 9:00AM-6:00PM Sun: 10:00AM-6:00PM,,"Digital photo pickup, Pharmacy drive-thru, Online ordering, Film roll processing"
10086,walgreens-2069-rockford-st-mt.-airy-nc-27030,(336) 789-2060,"2069 Rockford St,Mt. Airy, NC 27030",36.478629,-80.616348,,M  F: 8:00AM-10:00PM Sat: 9:00AM-6:00PM Sun: 10:00AM-6:00PM,,"Digital photo pickup, Pharmacy drive-thru, Online ordering, Redbox DVD rental, Film roll processing"
10087,walgreens-3911-capital-blvd-raleigh-nc-27604,(919) 872-5233,"3911 Capital Blvd,Raleigh, NC 27604",35.835001,-78.583219,,Open 24 Hours,,"Open 24 hours, Digital photo pickup, Printer cartridge refills, Pharmacy drive-thru, Online ordering, Redbox DVD rental, Medication Compounding, Film roll processing, Shingles Vaccine"
10088,walgreens-5717-s-nc-41-hwy-wallace-nc-28466,(910) 285-6481,"5717 S NC 41 Hwy,Wallace, NC 28466",34.782153,-77.908098,,M  F: 8:00AM-10:00PM Sat: 9:00AM-6:00PM Sun: 10:00AM-6:00PM,,"Digital photo pickup, Printer cartridge refills, Pharmacy drive-thru, Online ordering, Redbox DVD rental, Film roll processing"
10089,walgreens-1327-meadowlark-rd-winston-salem-nc-27106,(336) 922-7066,"1327 Meadowlark Rd,Winston-Salem, NC 27106",36.121328,-80.366701,,M  F: 8:00AM-10:00PM Sat: 9:00AM-6:00PM Sun: 10:00AM-6:00PM,,"Digital photo pickup, Pharmacy drive-thru, Online ordering, Redbox DVD rental, Film roll processing, Shingles Vaccine"
1009,walgreens-6200-s-western-ave-chicago-il-60636,(773) 434-2634,"6200 S Western Ave,Chicago, IL 60636",41.7807778,-87.6834267,M F: 8:00AM-10:00PM Sat: 8:00AM-10:00PM Sun: 9:00AM-9:00PM,M  F: 8:00AM-10:00PM Sat: 9:00AM-6:00PM Sun: 10:00AM-6:00PM,,"Digital photo pickup, Online ordering, Film roll processing"
10090,walgreens-12311-n-nc-highway-150-winston-salem-nc-27127,(336) 764-2581,"12311 N NC Highway 150,Winston-Salem, NC 27127",35.995612,-80.268227,,M  F: 8:00AM-10:00PM Sat: 9:00AM-6:00PM Sun: 10:00AM-6:00PM,,"Digital photo pickup, Pharmacy drive-thru, Online ordering, Redbox DVD rental, Film roll processing"
10092,walgreens-2101-church-ave-brooklyn-ny-11226,(718) 469-7012,"2101 Church Ave,Brooklyn, NY 11226",40.65054,-73.95958,,M  F: 8:00AM-10:00PM Sat: 9:00AM-6:00PM Sun: 9:00AM-6:00PM,,"Digital photo pickup, Online ordering, Film roll processing"
10094,walgreens-2675-n.-kelly-avenue-edmond-ok-73003,(405) 844-0280,"2675 N. Kelly Avenue,Edmond, OK 73003",35.6812546,-97.496204,,M  F: 8:00AM-10:00PM Sat: 9:00AM-6:00PM Sun: 10:00AM-6:00PM,,"Digital photo pickup, Pharmacy drive-thru, Online ordering, Film roll processing"
10095,walgreens-1000-lincoln-place-greensburg-pa-15601,(724) 850-8191,"1000 Lincoln Place,Greensburg, PA 15601",40.2982967,-79.5605387,,M  F: 8:00AM-10:00PM Sat: 9:00AM-6:00PM Sun: 10:00AM-6:00PM,,"Digital photo pickup, Pharmacy drive-thru, Immunizations, Cafe W: coffee, baked goods and more, Online ordering, Redbox DVD rental, Film roll processing, Shingles Vaccine"
10099,walgreens-333-atwells-ave-providence-ri-02903,(401) 276-8301,"333 Atwells Ave,Providence, RI 02903",41.8238217,-71.428718,,M  F: 8:00AM-10:00PM Sat: 9:00AM-6:00PM Sun: 10:00AM-6:00PM,,"Digital photo pickup, Online ordering, Film roll processing"
101,walgreens-3382-castro-valley-castro-valley-ca-94546,(510) 537-0072,"3382 Castro Valley,Castro Valley, CA 94546",37.696033,-122.076807,M F: 7:00AM-12:00AM Sat: 7:00AM-12:00AM Sun: 7:00AM-12:00AM,M  F: 8:00AM-9:00PM Sat: 9:00AM-6:00PM Sun: 10:00AM-6:00PM,,"Digital photo pickup, Printer cartridge refills, Liquor department (Beer & Wine), Immunizations, Online ordering, Medication Compounding, Film roll processing, Shingles Vaccine"
1010,walgreens-7479-lake-worth-rd-lake-worth-fl-33467,(561) 965-4798,"7479 Lake Worth Rd,Lake Worth, FL 33467",26.6177755,-80.1643507,M F: 8:00AM-10:00PM Sat: 8:00AM-10:00PM Sun: 8:00AM-10:00PM,M  F: 8:00AM-10:00PM Sat: 8:00AM-6:00PM Sun: 9:00AM-6:00PM,,"Digital photo pickup, Pharmacy drive-thru, Cafe W: coffee, baked goods and more, Online ordering, Film roll processing"
10100,walgreens-2198-southport-rd-spartanburg-sc-29306,(864) 582-5822,"2198 Southport Rd,Spartanburg, SC 29306",34.920735,-81.887576,,M  F: 8:00AM-10:00PM Sat: 9:00AM-6:00PM Sun: 10:00AM-6:00PM,,"Digital photo pickup, Pharmacy drive-thru, Online ordering, Redbox DVD rental, Film roll processing, Shingles Vaccine"
10101,walgreens-343-s-broad-st-woodbury-nj-08096,(856) 686-4851,"343 S Broad St,Woodbury, NJ 08096",39.8333186,-75.1569908,,M  F: 8:00AM-10:00PM Sat: 9:00AM-6:00PM Sun: 10:00AM-6:00PM,,"Digital photo pickup, Pharmacy drive-thru, Online ordering, Redbox DVD rental, Film roll processing, Shingles Vaccine"
10103,walgreens-5080-stage-rd-memphis-tn-38128,(901) 382-9237,"5080 Stage Rd,Memphis, TN 38128",35.2070407,-89.8946226,,Open 24 Hours,,"Open 24 hours, Digital photo pickup, Printer cartridge refills, Pharmacy drive-thru, Immunizations, Online ordering, Redbox DVD rental, Medication Compounding, Film roll processing, Shingles Vaccine"
10104,walgreens-1410--n--redwood--rd-saratoga-springs-ut-84045,(801) 766-1426,"1410  N  Redwood  RD,Saratoga Springs, UT 84045",40.3879844,-111.9152599,,M  F: 8:00AM-10:00PM Sat: 9:00AM-6:00PM Sun: 9:00AM-5:00PM,,"Digital photo pickup, Pharmacy drive-thru, Online ordering, Redbox DVD rental, Film roll processing"
10105,walgreens-17421-forest-rd-forest-va-24551,(434) 316-5403,"17421 Forest Rd,Forest, VA 24551",37.37003,-79.252184,,M  F: 9:00AM-9:00PM Sat: 9:00AM-6:00PM Sun: 10:00AM-6:00PM,,"Digital photo pickup, Pharmacy drive-thru, Immunizations, Online ordering, Redbox DVD rental, Film roll processing, Shingles Vaccine"
10106,walgreens-3520--ellwood-ave-richmond-va-23221,(804) 342-8864,"3520  Ellwood Ave,Richmond, VA 23221",37.5571725,-77.4874739,,Open 24 Hours,,"Open 24 hours, Digital photo pickup, Printer cartridge refills, Pharmacy drive-thru, Online ordering, Redbox DVD rental, Film roll processing, Shingles Vaccine"
10107,walgreens-633-w-tietan-st-walla-walla-wa-99362,(509) 529-1570,"633 W Tietan St,Walla Walla, WA 99362",46.0492996,-118.3459806,,M  F: 9:00AM-9:00PM Sat: 10:00AM-6:00PM Sun: 10:00AM-6:00PM,,"Digital photo pickup, Printer cartridge refills, Pharmacy drive-thru, Immunizations, Online ordering, Redbox DVD rental, Film roll processing, Shingles Vaccine"
10108,walgreens-17-crystal-ave-derry-nh-03038,(603) 434-1853,"17 Crystal Ave,Derry, NH 03038",42.8845564,-71.3249662,,M  F: 9:00AM-9:00PM Sat: 9:00AM-6:00PM Sun: 9:00AM-6:00PM,,"Digital photo pickup, Pharmacy drive-thru, Online ordering, Film roll processing"
10109,walgreens-109-e-dr-hicks-blvd-florence-al-35630,(256) 718-0457,"109 E Dr Hicks Blvd,Florence, AL 35630",34.7977115,-87.6740752,,M  F: 8:00AM-10:00PM Sat: 9:00AM-6:00PM Sun: 10:00AM-6:00PM,,"Digital photo pickup, Printer cartridge refills, Pharmacy drive-thru, Online ordering, Redbox DVD rental, Film roll processing"
1011,walgreens-3514-e-118th-street-chicago-il-60617,(773) 646-4591,"3514 E 118th Street,Chicago, IL 60617",41.680956,-87.5378636,M F: 8:00AM-10:00PM Sat: 8:00AM-10:00PM Sun: 8:00AM-10:00PM,,,"Digital photo pickup, Online ordering, Redbox DVD rental, Film roll processing"
10110,walgreens-1832-ashville-rd-ne-leeds-al-35094,(205) 702-4783,"1832 Ashville Rd NE,Leeds, AL 35094",33.5547354,-86.5322094,,M  F: 8:00AM-10:00PM Sat: 9:00AM-6:00PM Sun: 10:00AM-6:00PM,,"Digital photo pickup, Pharmacy drive-thru, Online ordering, Redbox DVD rental, Film roll processing"
10111,walgreens-3434--w.-southern-avenue-phoenix-az-85041,(602) 283-2071,"3434  W. Southern Avenue,Phoenix, AZ 85041",33.3920925,-112.1321988,,M  F: 9:00AM-9:00PM Sat: 10:00AM-6:00PM Sun: 10:00AM-6:00PM,,"Digital photo pickup, Pharmacy drive-thru, Online ordering, Redbox DVD rental, Film roll processing"
10112,walgreens-9018-firestone-blvd-downey-ca-90241,(562) 861-5089,"9018 Firestone Blvd,Downey, CA 90241",33.9345939,-118.1239782,,M  F: 8:00AM-9:00PM Sat: 9:00AM-6:00PM Sun: 10:00AM-6:00PM,,"Digital photo pickup, Pharmacy drive-thru, Cafe W: coffee, baked goods and more, Online ordering, Film roll processing"
10114,walgreens-3521-del-paso-rd-sacramento-ca-95835,(916) 515-1866,"3521 Del Paso Rd,Sacramento, CA 95835",38.6556907,-121.5476188,,M  F: 8:00AM-9:00PM Sat: 9:00AM-6:00PM Sun: 10:00AM-6:00PM,,"Digital photo pickup, Printer cartridge refills, Pharmacy drive-thru, Online ordering, Film roll processing"
10116,walgreens-3067-s.-sheridan-blvd.-denver-co-80227,(720) 214-0186,"3067 S. Sheridan Blvd.,Denver, CO 80227",39.657497,-105.053651,,M  F: 8:00AM-10:00PM Sat: 9:00AM-6:00PM Sun: 10:00AM-6:00PM,,"Digital photo pickup, Printer cartridge refills, Pharmacy drive-thru, Immunizations and travel vaccines, Cafe W: coffee, baked goods and more, Online ordering, Redbox DVD rental, Film roll processing, Shingles Vaccine"
10117,walgreens-17222-s-golden-rd-golden-co-80401,(303) 457-5823,"17222 S Golden Rd,Golden, CO 80401",39.7385194,-105.1955154,,M  F: 8:00AM-10:00PM Sat: 9:00AM-6:00PM Sun: 10:00AM-6:00PM,,"Digital photo pickup, Printer cartridge refills, Pharmacy drive-thru, Immunizations and travel vaccines, Online ordering, Film roll processing, Shingles Vaccine"
10118,walgreens-10337-washington-st-thornton-co-80229,(720) 833-3790,"10337 Washington St,Thornton, CO 80229",39.883906,-104.978388,,M  F: 8:00AM-10:00PM Sat: 9:00AM-6:00PM Sun: 10:00AM-6:00PM,,"Digital photo pickup, Pharmacy drive-thru, Online ordering, Shingles Vaccine"
10119,walgreens-980-farmington-ave-berlin-ct-06037,(860) 828-6844,"980 Farmington Ave,Berlin, CT 06037",41.631822,-72.762429,,M  F: 8:00AM-10:00PM Sat: 9:00AM-6:00PM Sun: 9:00AM-6:00PM,,"Digital photo pickup, Printer cartridge refills, Pharmacy drive-thru, Online ordering, Film roll processing"
10121,walgreens-199-e-church-st-jasper-ga-30143,(706) 253-9237,"199 E Church St,Jasper, GA 30143",34.4689819,-84.426522,,M  F: 8:00AM-10:00PM Sat: 8:00AM-10:00PM Sun: 9:00AM-6:00PM,,"Open 24 hours, Digital photo pickup, Printer cartridge refills, Pharmacy drive-thru, Online ordering, Film roll processing, Shingles Vaccine"
10122,walgreens-951-n-hwy-83-mundelein-il-60060,(847) 566-7208,"951 N Hwy 83,Mundelein, IL 60060",42.2789764,-88.0423437,,M  F: 8:00AM-10:00PM Sat: 9:00AM-5:00PM Sun: 9:00AM-5:00PM,,"Digital photo pickup, Printer cartridge refills, Pharmacy drive-thru, Online ordering, Film roll processing, Shingles Vaccine, Web pickup"
10123,walgreens-10795-broadway-crown-point-in-46307,(219) 661-8406,"10795 Broadway,Crown Point, IN 46307",41.4206425,-87.3350505,,M  F: 8:00AM-10:00PM Sat: 9:00AM-6:00PM Sun: 10:00AM-6:00PM,,"Digital photo pickup, Printer cartridge refills, Pharmacy drive-thru, Immunizations, Online ordering, Redbox DVD rental, Film roll processing, Shingles Vaccine"
10124,walgreens-1400-cassopolis-st-elkhart-in-46514,(574) 262-2756,"1400 Cassopolis St,Elkhart, IN 46514",41.701866,-85.971338,,Open 24 Hours,,"Open 24 hours, Digital photo pickup, Printer cartridge refills, Pharmacy drive-thru, Immunizations, Online ordering, Redbox DVD rental, Film roll processing, Shingles Vaccine"
10125,walgreens-2850-state-avenue-kansas-city-ks-66102,(913) 621-7073,"2850 State Avenue,Kansas City, KS 66102",39.117214,-94.660948,,M  F: 9:00AM-9:00PM Sat: 9:00AM-6:00PM Sun: 10:00AM-6:00PM,,"Digital photo pickup, Pharmacy drive-thru, Online ordering, Film roll processing"
10126,walgreens-105-saint-nazaire-rd-broussard-la-70518,(337) 837-1640,"105 Saint Nazaire Rd,Broussard, LA 70518",30.141364,-91.944629,,M  F: 8:00AM-10:00PM Sat: 9:00AM-6:00PM Sun: 10:00AM-6:00PM,,"Digital photo pickup, Pharmacy drive-thru, Online ordering, Redbox DVD rental, Film roll processing"
10127,walgreens-625-carew-st-springfield-ma-01104,(413) 205-1495,"625 Carew St,Springfield, MA 01104",42.1221607,-72.5883076,,M  F: 8:00AM-10:00PM Sat: 8:00AM-10:00PM Sun: 8:00AM-10:00PM,,"Digital photo pickup, Printer cartridge refills, Pharmacy drive-thru, Online ordering, Redbox DVD rental, Film roll processing"
10128,walgreens-171-west-st-ware-ma-01082,(413) 277-9749,"171 WEST ST,Ware, MA 01082",42.2545373,-72.2543676,,M  F: 9:00AM-9:00PM Sat: 9:00AM-6:00PM Sun: 10:00AM-6:00PM,,"Digital photo pickup, Pharmacy drive-thru, Online ordering, Redbox DVD rental, Film roll processing"
10129,walgreens-8364-byron-center-ave-sw-byron-center-mi-49315,(616) 878-0497,"8364 Byron Center Ave Sw,Byron Center, MI 49315",42.8130809,-85.722326,,M  F: 9:00AM-9:00PM Sat: 10:00AM-6:00PM Sun: 10:00AM-6:00PM,,"Digital photo pickup, Printer cartridge refills, Pharmacy drive-thru, Online ordering, Redbox DVD rental, Film roll processing, Shingles Vaccine"
1013,walgreens-5564-broadway-bronx-ny-10463,(718) 548-5884,"5564 Broadway,Bronx, NY 10463",40.878269,-73.904558,Open 24 Hours,Open 24 Hours,,"Open 24 hours, Digital photo pickup, Printer cartridge refills, Liquor department (Beer & Wine), Online ordering, Redbox DVD rental, Medication Compounding, Film roll processing"
10130,walgreens-6365-lewis-dr-parkville-mo-64152,(816) 505-1708,"6365 Lewis Dr,Parkville, MO 64152",39.207858,-94.684789,,M  F: 8:00AM-10:00PM Sat: 9:00AM-6:00PM Sun: 10:00AM-6:00PM,,"Digital photo pickup, Printer cartridge refills, Pharmacy drive-thru, Online ordering, Film roll processing"
10131,walgreens-303-d'evereux-dr-natchez-ms-39120,(601) 446-5810,"303 D'evereux Dr,Natchez, MS 39120",31.5604442,-91.403171,,M  F: 8:00AM-8:00PM Sat: 9:00AM-6:00PM Sun: 12:00PM-5:00PM,,"Digital photo pickup, Pharmacy drive-thru, Online ordering, Redbox DVD rental, Film roll processing"
10132,walgreens-1700-w-ehringhaus-st-elizabeth-city-nc-27909,(252) 331-1201,"1700 W Ehringhaus St,Elizabeth City, NC 27909",36.2926,-76.2469,,M  F: 8:00AM-10:00PM Sat: 9:00AM-7:00PM Sun: 10:00AM-6:00PM,,"Digital photo pickup, Pharmacy drive-thru, Online ordering, Redbox DVD rental, Film roll processing, Shingles Vaccine"
10133,walgreens-1505-e-innes-st-salisbury-nc-28146,(704) 637-6864,"1505 E Innes St,Salisbury, NC 28146",35.653868,-80.4575009,,M  F: 8:00AM-10:00PM Sat: 8:00AM-10:00PM Sun: 8:00AM-10:00PM,,"Digital photo pickup, Printer cartridge refills, Pharmacy drive-thru, Online ordering, Film roll processing, Shingles Vaccine"
10134,walgreens-652-hempstead-tpke-franklin-square-ny-11010,(516) 486-1485,"652 Hempstead Tpke,Franklin Square, NY 11010",40.707127,-73.663849,,M  F: 8:00AM-10:00PM Sat: 9:00AM-6:00PM Sun: 10:00AM-6:00PM,,"Digital photo pickup, Printer cartridge refills, Pharmacy drive-thru, Online ordering, Medication Compounding, Film roll processing"
10135,walgreens-298-first-avenue-new-york-(manhattan)-ny-10009,(212) 777-0740,"298 FIRST AVENUE,New York (Manhattan), NY 10009",40.7331365,-73.9811842,,M  F: 8:00AM-10:00PM Sat: 9:00AM-6:00PM Sun: 10:00AM-6:00PM,,"Digital photo pickup, Online ordering, Film roll processing"
10136,walgreens-770-ashland-rd-mansfield-oh-44905,(419) 522-1409,"770 Ashland Rd,Mansfield, OH 44905",40.7695549,-82.486628,,M  F: 9:00AM-9:00PM Sat: 10:00AM-6:00PM Sun: 10:00AM-6:00PM,,"Digital photo pickup, Pharmacy drive-thru, Online ordering, Redbox DVD rental, Film roll processing, Shingles Vaccine"
10137,walgreens-38241-proctor-blvd-sandy-or-97055,(503) 668-1384,"38241 Proctor Blvd,Sandy, OR 97055",45.3974885,-122.2699551,,M  F: 8:00AM-10:00PM Sat: 9:00AM-6:00PM Sun: 10:00AM-6:00PM,,"Digital photo pickup, Printer cartridge refills, Pharmacy drive-thru, Online ordering, Film roll processing"
10138,walgreens-4849-n-hwy146-baytown-tx-77520,(281) 420-9827,"4849 N Hwy146,Baytown, TX 77520",29.7291996,-95.0078451,,M  F: 8:00AM-10:00PM Sat: 9:00AM-6:00PM Sun: 10:00AM-6:00PM,,"Digital photo pickup, Printer cartridge refills, Pharmacy drive-thru, Immunizations, Online ordering, Redbox DVD rental, Film roll processing, Shingles Vaccine"
10139,walgreens-1305-n-main-st-vidor-tx-77662,(409) 769-1171,"1305 N Main St,Vidor, TX 77662",30.142969,-94.016619,,M  F: 8:00AM-10:00PM Sat: 9:00AM-6:00PM Sun: 10:00AM-6:00PM,,"Digital photo pickup, Pharmacy drive-thru, Online ordering, Redbox DVD rental, Film roll processing"
10140,walgreens-14400-warwick-blvd-newport-news-va-23608,(757) 874-5084,"14400 Warwick Blvd,Newport News, VA 23608",37.1292052,-76.5370677,,M  F: 8:00AM-10:00PM Sat: 9:00AM-6:00PM Sun: 10:00AM-6:00PM,,"Digital photo pickup, Pharmacy drive-thru, Online ordering, Redbox DVD rental, Film roll processing, Shingles Vaccine"
10141,walgreens-2903-ne-andresen-rd-vancouver-wa-98661,(360) 256-1503,"2903 NE Andresen Rd,Vancouver, WA 98661",45.6433853,-122.60062,,M  F: 8:00AM-10:00PM Sat: 9:00AM-6:00PM Sun: 10:00AM-6:00PM,,"Digital photo pickup, Printer cartridge refills, Pharmacy drive-thru, Online ordering, Film roll processing"
10142,walgreens-460-w-felicita-escondido-ca-92025,(760) 735-6025,"460 W Felicita,Escondido, CA 92025",33.1036833,-117.0754094,,M  F: 8:00AM-9:00PM Sat: 9:00AM-6:00PM Sun: 10:00AM-6:00PM,,"Digital photo pickup, Pharmacy drive-thru, Immunizations, Online ordering, Redbox DVD rental, Film roll processing, Shingles Vaccine"
10144,walgreens-1745-e-main-st-torrington-ct-06790,(860) 482-8837,"1745 E Main St,Torrington, CT 06790",41.821563,-73.082212,,M  F: 8:00AM-10:00PM Sat: 9:00AM-6:00PM Sun: 9:00AM-6:00PM,,"Digital photo pickup, Pharmacy drive-thru, Online ordering, Redbox DVD rental, Film roll processing, Shingles Vaccine"
10145,walgreens-1063-n-toledo-blade-blvd-north-port-fl-34288,(941) 429-6174,"1063 N Toledo Blade Blvd,North Port, FL 34288",27.0690567,-82.1569681,,M  F: 8:00AM-10:00PM Sat: 9:00AM-6:00PM Sun: 9:00AM-5:00PM,,"Digital photo pickup, Pharmacy drive-thru, Online ordering, Film roll processing"
10147,walgreens-1217-w-jefferson-st-quincy-fl-32351,(850) 627-7663,"1217 W Jefferson St,Quincy, FL 32351",30.587551,-84.591967,,M  F: 9:00AM-9:00PM Sat: 10:00AM-6:00PM Sun: 10:00AM-6:00PM,,"Digital photo pickup, Online ordering, Redbox DVD rental, Film roll processing"
10148,walgreens-6s235-steeple-run-dr-naperville-il-60540,(630) 717-9333,"6S235 Steeple Run Dr,Naperville, IL 60540",41.781048,-88.103989,,M  F: 8:00AM-10:00PM Sat: 9:00AM-6:00PM Sun: 9:00AM-5:00PM,,"Digital photo pickup, Printer cartridge refills, Pharmacy drive-thru, Immunizations, Online ordering, Redbox DVD rental, Film roll processing, Shingles Vaccine"
10149,walgreens-13741-east-116th-st-fishers-in-46037,(317) 595-8764,"13741 East 116th St,Fishers, IN 46037",39.957234,-85.9193729,,M  F: 8:00AM-10:00PM Sat: 8:00AM-6:00PM Sun: 10:00AM-6:00PM,,"Digital photo pickup, Printer cartridge refills, Pharmacy drive-thru, Immunizations, Online ordering, Film roll processing, Shingles Vaccine"
1015,walgreens-1725-w-cumberland-ave-knoxville-tn-37916,(865) 525-2918,"1725 W Cumberland Ave,Knoxville, TN 37916",35.9560772,-83.9337587,M F: 8:00AM-12:00AM Sat: 8:00AM-12:00AM Sun: 8:00AM-12:00AM,M  F: 9:00AM-7:00PM Sat: 9:00AM-5:00PM Sun:       CLOSED       ,,"Digital photo pickup, Printer cartridge refills, Online ordering, Film roll processing"
10150,walgreens-750-e.-main-st-gardner-ks-66030,(913) 884-7912,"750 E. Main St,Gardner, KS 66030",38.811589,-94.91165,,M  F: 8:00AM-10:00PM Sat: 9:00AM-6:00PM Sun: 10:00AM-6:00PM,,"Digital photo pickup, Pharmacy drive-thru, Online ordering, Redbox DVD rental, Film roll processing"
10151,walgreens-3700-frankfort-ave-louisville-ky-40207,(502) 899-9353,"3700 Frankfort Ave,Louisville, KY 40207",38.2533712,-85.661969,,M  F: 8:00AM-10:00PM Sat: 9:00AM-6:00PM Sun: 10:00AM-6:00PM,,"Digital photo pickup, Printer cartridge refills, Pharmacy drive-thru, Online ordering, Redbox DVD rental, Film roll processing, Shingles Vaccine"
10152,walgreens-624-waverly-st-framingham-ma-01702,(508) 935-2201,"624 Waverly St,Framingham, MA 01702",42.2740349,-71.4248686,,M  F: 8:00AM-10:00PM Sat: 9:00AM-6:00PM Sun: 10:00AM-6:00PM,,"Digital photo pickup, Pharmacy drive-thru, Online ordering, Film roll processing"
10153,walgreens-110-n-westwood-blvd-poplar-bluff-mo-63901,(573) 776-1476,"110 N Westwood Blvd,Poplar Bluff, MO 63901",36.7579311,-90.4074187,,M  F: 8:00AM-10:00PM Sat: 8:00AM-6:00PM Sun: 10:00AM-6:00PM,,"Digital photo pickup, Printer cartridge refills, Pharmacy drive-thru, Online ordering, Redbox DVD rental, Film roll processing"
10154,walgreens-6028-s-nc-16-hwy-maiden-nc-28650,(704) 483-9133,"6028 S Nc 16 Hwy,Maiden, NC 28650",35.559648,-81.063016,,M  F: 8:00AM-10:00PM Sat: 9:00AM-6:00PM Sun: 10:00AM-6:00PM,,"Digital photo pickup, Printer cartridge refills, Pharmacy drive-thru, Online ordering, Redbox DVD rental, Film roll processing, Shingles Vaccine"
10156,walgreens-20-w-kings-hwy-mount-ephraim-nj-08059,(856) 931-2473,"20 W Kings Hwy,Mount Ephraim, NJ 08059",39.8813592,-75.0869234,,M  F: 8:00AM-10:00PM Sat: 8:00AM-10:00PM Sun: 8:00AM-10:00PM,,"Open 24 hours, Digital photo pickup, Printer cartridge refills, Pharmacy drive-thru, Online ordering, Film roll processing, Shingles Vaccine"
10157,walgreens-150-grant-ave-auburn-ny-13021,(315) 704-0293,"150 GRANT AVE,Auburn, NY 13021",42.94439,-76.549294,,M  F: 8:00AM-10:00PM Sat: 9:00AM-6:00PM Sun: 10:00AM-6:00PM,,"Digital photo pickup, Printer cartridge refills, Pharmacy drive-thru, Online ordering, Medication Compounding, Film roll processing"
10158,walgreens-3948-route-281-cortland-ny-13045,(607) 756-8489,"3948 Route 281,Cortland, NY 13045",42.597669,-76.204155,,M  F: 8:00AM-10:00PM Sat: 9:00AM-6:00PM Sun: 10:00AM-6:00PM,,"Digital photo pickup, Pharmacy drive-thru, Online ordering, Film roll processing"
10159,walgreens-201-s-james-st-rome-ny-13440,(315) 339-9380,"201 S James St,Rome, NY 13440",43.2094936,-75.4587705,,M  F: 8:00AM-10:00PM Sat: 9:00AM-6:00PM Sun: 10:00AM-6:00PM,,"Digital photo pickup, Pharmacy drive-thru, Online ordering, Redbox DVD rental, Film roll processing"
10160,walgreens-1-roosevelt-ave-guaynabo-pr-00968,(787) 792-3725,"1 Roosevelt Ave,Guaynabo, PR 00968",18.4105339,-66.1041856,,Open 24 Hours,,"Open 24 hours, Digital photo pickup, Printer cartridge refills, Pharmacy drive-thru, Cafe W: coffee, baked goods and more, Online ordering, Redbox DVD rental, Film roll processing"
10162,walgreens-1716-pleasant-rd-ft-mill-sc-29708,(803) 802-7644,"1716 Pleasant Rd,Ft Mill, SC 29708",35.0336037,-80.9694643,,M  F: 8:00AM-10:00PM Sat: 9:00AM-6:00PM Sun: 10:00AM-6:00PM,,"Digital photo pickup, Printer cartridge refills, Pharmacy drive-thru, Online ordering, Redbox DVD rental, Film roll processing"
10163,walgreens-1601-sandifer-blvd-seneca-sc-29678,(864) 885-0889,"1601 Sandifer Blvd,Seneca, SC 29678",34.6848685,-83.0025598,,Open 24 Hours,,"Open 24 hours, Digital photo pickup, Printer cartridge refills, Pharmacy drive-thru, Online ordering, Redbox DVD rental, Film roll processing, Shingles Vaccine"
10164,walgreens-4440-highway-411-madisonville-tn-37354,(423) 442-4778,"4440 Highway 411,Madisonville, TN 37354",35.4519662,-84.4431502,,M  F: 8:00AM-10:00PM Sat: 9:00AM-6:00PM Sun: 10:00AM-6:00PM,,"Digital photo pickup, Printer cartridge refills, Pharmacy drive-thru, Online ordering, Redbox DVD rental, Film roll processing"
10165,walgreens-603-elden-st-herndon-va-20170,(703) 796-6482,"603 Elden St,Herndon, VA 20170",38.9690579,-77.3812711,,M  F: 8:00AM-10:00PM Sat: 9:00AM-6:00PM Sun: 10:00AM-6:00PM,,"Digital photo pickup, Printer cartridge refills, Pharmacy drive-thru, Immunizations, Cafe W: coffee, baked goods and more, Online ordering, Film roll processing, Shingles Vaccine"
10168,walgreens-12550-highway-90-grand-bay-al-36541,(251) 865-1429,"12550 Highway 90,Grand Bay, AL 36541",30.4781097,-88.3394454,,M  F: 8:00AM-8:00PM Sat: 9:00AM-6:00PM Sun: 10:00AM-6:00PM,,"Digital photo pickup, Pharmacy drive-thru, Online ordering, Redbox DVD rental, Film roll processing"
10169,walgreens-30957-mill-lane-daphne-al-36526,(251) 625-4654,"30957 Mill Lane,Daphne, AL 36526",30.6724517,-87.852405,,M  F: 8:00AM-10:00PM Sat: 9:00AM-6:00PM Sun: 10:00AM-6:00PM,,"Digital photo pickup, Printer cartridge refills, Pharmacy drive-thru, Online ordering, Redbox DVD rental, Film roll processing, Shingles Vaccine"
10170,walgreens-505-salem-rd-conway-ar-72034,(501) 328-3117,"505 Salem Rd,Conway, AR 72034",35.0855377,-92.4726266,,M  F: 8:00AM-10:00PM Sat: 9:00AM-6:00PM Sun: 10:00AM-6:00PM,,"Digital photo pickup, Printer cartridge refills, Pharmacy drive-thru, Online ordering, Redbox DVD rental, Film roll processing"
10172,walgreens-1181-n-state-st-san-jacinto-ca-92583,(951) 487-3810,"1181 N State St,San Jacinto, CA 92583",33.8018501,-116.9720789,,M  F: 8:00AM-9:00PM Sat: 9:00AM-6:00PM Sun: 10:00AM-6:00PM,,"Digital photo pickup, Printer cartridge refills, Pharmacy drive-thru, Online ordering, Redbox DVD rental, Film roll processing"
10175,walgreens-12011-e-iliff-ave-aurora-co-80014,(303) 695-3049,"12011 E Iliff Ave,Aurora, CO 80014",39.67518,-104.847968,,M  F: 8:00AM-10:00PM Sat: 9:00AM-6:00PM Sun: 10:00AM-6:00PM,,"Digital photo pickup, Printer cartridge refills, Pharmacy drive-thru, Immunizations, Online ordering, Film roll processing, Shingles Vaccine"
10177,walgreens-54-west-ave-norwalk-ct-06854,(203) 299-1215,"54 West Ave,Norwalk, CT 06854",41.1038031,-73.4201671,,M  F: 8:00AM-10:00PM Sat: 9:00AM-6:00PM Sun: 9:00AM-6:00PM,,"Digital photo pickup, Pharmacy drive-thru, Online ordering, Film roll processing"
10178,walgreens-6945-highway-17-fleming-island-fl-32003,(904) 284-0848,"6945 Highway 17,Fleming Island, FL 32003",30.068059,-81.70669,,M  F: 9:00AM-9:00PM Sat: 9:00AM-6:00PM Sun: 10:00AM-6:00PM,,"Digital photo pickup, Pharmacy drive-thru, Online ordering, Redbox DVD rental, Film roll processing"
10179,walgreens-6370-bayshore-rd-north-fort-myers-fl-33917,(239) 656-1424,"6370 Bayshore Rd,North Fort Myers, FL 33917",26.6973565,-81.8522804,,M  F: 8:00AM-8:00PM Sat: 9:00AM-6:00PM Sun: 9:00AM-5:00PM,,"Digital photo pickup, Printer cartridge refills, Pharmacy drive-thru, Online ordering, Redbox DVD rental, Film roll processing"
10180,walgreens-19550-pine-blvd-pembroke-pines-fl-33029,(954) 885-6264,"19550 Pine Blvd,Pembroke Pines, FL 33029",26.0290348,-80.2951238,,M  F: 9:00AM-9:00PM Sat: 9:00AM-6:00PM Sun: 9:00AM-5:00PM,,"Digital photo pickup, Pharmacy drive-thru, Online ordering, Film roll processing"
10181,walgreens-2237-w-nine-mile-rd-pensacola-fl-32534,(850) 473-0286,"2237 W Nine Mile Rd,Pensacola, FL 32534",30.533586,-87.314262,,M  F: 8:00AM-10:00PM Sat: 9:00AM-6:00PM Sun: 10:00AM-6:00PM,,"Digital photo pickup, Pharmacy drive-thru, Online ordering, Redbox DVD rental, Film roll processing"
10184,walgreens-1351-n-ironwood-dr.-south-bend-in-46615,(574) 234-5046,"1351 N Ironwood Dr.,South Bend, IN 46615",41.6936845,-86.2164172,,M  F: 8:00AM-10:00PM Sat: 8:00AM-10:00PM Sun: 8:00AM-10:00PM,,"Open 24 hours, Digital photo pickup, Printer cartridge refills, Pharmacy drive-thru, Online ordering, Redbox DVD rental, Medication Compounding, Film roll processing"
10186,walgreens-1029-m-37-s-traverse-city-mi-49684,(231) 943-3147,"1029 M 37 S,Traverse City, MI 49684",44.7086674,-85.6516065,,M  F: 9:00AM-9:00PM Sat: 10:00AM-6:00PM Sun: 10:00AM-6:00PM,,"Digital photo pickup, Pharmacy drive-thru, Online ordering, Film roll processing, Shingles Vaccine"
10187,walgreens-900-main-ave-moorhead-mn-56560,(218) 236-0252,"900 Main Ave,Moorhead, MN 56560",46.873949,-96.7659097,,M  F: 8:00AM-10:00PM Sat: 9:00AM-6:00PM Sun: 10:00AM-6:00PM,,"Digital photo pickup, Printer cartridge refills, Pharmacy drive-thru, Online ordering, Redbox DVD rental, Film roll processing, Shingles Vaccine"
10188,walgreens-1615-queens-drive-woodbury-mn-55125,(651) 731-4778,"1615 Queens drive,Woodbury, MN 55125",44.9254566,-92.9592848,,M  F: 8:00AM-10:00PM Sat: 9:00AM-6:00PM Sun: 10:00AM-6:00PM,,"Digital photo pickup, Printer cartridge refills, Pharmacy drive-thru, Online ordering, Film roll processing"
10189,walgreens-1321-oxford-st-worthington-mn-56187,(507) 372-7496,"1321 Oxford St,Worthington, MN 56187",43.6312151,-95.5946894,,M  F: 9:00AM-9:00PM Sat: 10:00AM-6:00PM Sun: 10:00AM-6:00PM,,"Digital photo pickup, Printer cartridge refills, Pharmacy drive-thru, Online ordering, Redbox DVD rental, Film roll processing"
10190,walgreens-565-e-centennial-pkwy-north-las-vegas-nv-89081,(702) 399-3405,"565 E Centennial Pkwy,North Las Vegas, NV 89081",36.275766,-115.134247,,M  F: 9:00AM-9:00PM Sat: 9:00AM-6:00PM Sun: 10:00AM-6:00PM,,"Digital photo pickup, Pharmacy drive-thru, Online ordering, Redbox DVD rental, Film roll processing"
10191,walgreens-1619-franklin-rd.-brentwood-tn-37027,(615) 370-8043,"1619 Franklin Rd.,Brentwood, TN 37027",35.974117,-86.833865,,M  F: 9:00AM-9:00PM Sat: 9:00AM-6:00PM Sun: 10:00AM-6:00PM,,"Digital photo pickup, Pharmacy drive-thru, Online ordering, Medication Compounding, Film roll processing, Shingles Vaccine"
10192,walgreens-1388-volunteer-pkwy.-bristol-tn-37620,(423) 274-0259,"1388 Volunteer Pkwy.,Bristol, TN 37620",36.5600537,-82.2111499,,M  F: 8:00AM-10:00PM Sat: 9:00AM-6:00PM Sun: 10:00AM-6:00PM,,"Digital photo pickup, Pharmacy drive-thru, Immunizations, Online ordering, Redbox DVD rental, Film roll processing, Shingles Vaccine"
10193,walgreens-731-w-beltline-rd-desoto-tx-75115,(972) 230-3748,"731 W Beltline Rd,Desoto, TX 75115",32.59048,-96.873566,M F: 8:00AM-10:00PM Sat: 8:00AM-10:00PM Sun: 8:00AM-10:00PM,M  F: 8:00AM-10:00PM Sat: 9:00AM-6:00PM Sun: 10:00AM-6:00PM,,"Digital photo pickup, Pharmacy drive-thru, Online ordering, Redbox DVD rental, Film roll processing"
10195,walgreens-2800-w-clearwater-ave-kennewick-wa-99336,(509) 783-5412,"2800 W Clearwater Ave,Kennewick, WA 99336",46.2128511,-119.1594462,,Open 24 Hours,,"Open 24 hours, Digital photo pickup, Printer cartridge refills, Pharmacy drive-thru, Online ordering, Redbox DVD rental, Film roll processing"
10196,walgreens-6600-w-state-st-wauwatosa-wi-53213,(414) 476-5585,"6600 W State St,Wauwatosa, WI 53213",43.0456263,-87.9947852,,M  F: 8:00AM-10:00PM Sat: 9:00AM-6:00PM Sun: 10:00AM-6:00PM,,"Digital photo pickup, Printer cartridge refills, Pharmacy drive-thru, Immunizations, Cafe W: coffee, baked goods and more, Online ordering, Film roll processing, Shingles Vaccine"
10197,walgreens-3150-w-cherry-lane-meridian-id-83642,(208) 319-2312,"3150 W Cherry Lane,Meridian, ID 83642",43.6193246,-116.4330662,,M  F: 8:00AM-10:00PM Sat: 9:00AM-5:00PM Sun: 9:00AM-5:00PM,,"Digital photo pickup, Printer cartridge refills, Pharmacy drive-thru, Immunizations, Online ordering, Redbox DVD rental, Film roll processing, Shingles Vaccine"
10198,walgreens-2135-west-ave-el-dorado-ar-71730,(870) 862-5458,"2135 West Ave,El Dorado, AR 71730",33.2325143,-92.6654578,,M  F: 8:00AM-10:00PM Sat: 9:00AM-6:00PM Sun: 10:00AM-6:00PM,,"Open 24 hours, Digital photo pickup, Printer cartridge refills, Pharmacy drive-thru, Immunizations, Online ordering, Redbox DVD rental, Film roll processing, Shingles Vaccine"
10199,walgreens-1100-e-main-st-russellville-ar-72801,(479) 967-1573,"1100 E Main St,Russellville, AR 72801",35.2783266,-93.1199722,,Open 24 Hours,,"Open 24 hours, Digital photo pickup, Printer cartridge refills, Pharmacy drive-thru, Immunizations, Online ordering, Redbox DVD rental, Film roll processing, Shingles Vaccine"
10200,walgreens-6006-lincoln-ave-cypress-ca-90630,(714) 821-0669,"6006 Lincoln Ave,Cypress, CA 90630",33.831506,-118.0279626,,M  F: 8:00AM-9:00PM Sat: 9:00AM-6:00PM Sun: 10:00AM-6:00PM,,"Digital photo pickup, Pharmacy drive-thru, Online ordering, Film roll processing"
10201,walgreens-170-w-el-monte-way-dinuba-ca-93618,(559) 595-1649,"170 W El Monte Way,Dinuba, CA 93618",36.545406,-119.395876,,M  F: 8:00AM-9:00PM Sat: 9:00AM-5:00PM Sun: 10:00AM-6:00PM,,"Digital photo pickup, Pharmacy drive-thru, Cafe W: coffee, baked goods and more, Online ordering, Redbox DVD rental, Film roll processing"
10202,walgreens-2245-s-euclid-ave-ontario-ca-91762,(909) 984-0140,"2245 S Euclid Ave,Ontario, CA 91762",34.0331602,-117.6506719,,M  F: 8:00AM-9:00PM Sat: 9:00AM-6:00PM Sun: 10:00AM-6:00PM,,"Digital photo pickup, Pharmacy drive-thru, Online ordering, Redbox DVD rental, Film roll processing"
10203,walgreens-25-main-st-bristol-ct-06010,(860) 585-7426,"25 Main St,Bristol, CT 06010",41.668535,-72.9432664,,M  F: 8:00AM-10:00PM Sat: 9:00AM-6:00PM Sun: 9:00AM-6:00PM,,"Digital photo pickup, Printer cartridge refills, Pharmacy drive-thru, Online ordering, Film roll processing"
10204,walgreens-2200-9th-street-n-naples-fl-34103,(239) 263-0240,"2200 9th Street N,Naples, FL 34103",26.1743298,-81.7995375,,M  F: 8:00AM-10:00PM Sat: 9:00AM-6:00PM Sun: 9:00AM-5:00PM,,"Digital photo pickup, Pharmacy drive-thru, Online ordering, Film roll processing"
10205,walgreens-640-edwardsville-rd-troy-il-62294,(618) 667-4267,"640 Edwardsville Rd,Troy, IL 62294",38.7317831,-89.9027018,,M  F: 8:00AM-10:00PM Sat: 8:00AM-6:00PM Sun: 10:00AM-6:00PM,,"Digital photo pickup, Pharmacy drive-thru, Online ordering, Redbox DVD rental, Film roll processing"
10206,walgreens-2290-nicholasville-rd-lexington-ky-40503,(859) 276-1553,"2290 Nicholasville Rd,Lexington, KY 40503",38.00595,-84.5176089,,M  F: 9:00AM-9:00PM Sat: 9:00AM-6:00PM Sun: 10:00AM-6:00PM,,"Digital photo pickup, Printer cartridge refills, Pharmacy drive-thru, Immunizations, Online ordering, Redbox DVD rental, Film roll processing, Shingles Vaccine"
10207,walgreens-152-n-buckman-st-shepherdsville-ky-40165,(502) 543-2202,"152 N Buckman St,Shepherdsville, KY 40165",37.9926343,-85.7148929,,M  F: 8:00AM-10:00PM Sat: 9:00AM-6:00PM Sun: 10:00AM-6:00PM,,"Digital photo pickup, Printer cartridge refills, Pharmacy drive-thru, Online ordering, Redbox DVD rental, Film roll processing, Shingles Vaccine"
10209,walgreens-800-waverly-rd-north-andover-ma-01845,(978) 681-1530,"800 Waverly Rd,North Andover, MA 01845",42.6785274,-71.1338465,,M  F: 8:00AM-10:00PM Sat: 8:00AM-10:00PM Sun: 8:00AM-10:00PM,,"Digital photo pickup, Printer cartridge refills, Pharmacy drive-thru, Online ordering, Film roll processing"
10210,walgreens-1100-2nd-st-s-sartell-mn-56377,(320) 654-8542,"1100 2nd St S,Sartell, MN 56377",45.6154474,-94.223472,,M  F: 8:00AM-10:00PM Sat: 9:00AM-6:00PM Sun: 10:00AM-6:00PM,,"Digital photo pickup, Printer cartridge refills, Pharmacy drive-thru, Online ordering, Redbox DVD rental, Film roll processing"
10211,walgreens-701-n-hwy-47-warrenton-mo-63383,(636) 377-2172,"701 N Hwy 47,Warrenton, MO 63383",38.7527487,-91.1503394,,M  F: 8:00AM-10:00PM Sat: 8:00AM-6:00PM Sun: 10:00AM-6:00PM,,"Digital photo pickup, Printer cartridge refills, Pharmacy drive-thru, Online ordering, Redbox DVD rental, Film roll processing"
10212,walgreens-91-s-tunnel-rd-asheville-nc-28805,(828) 232-4042,"91 S Tunnel Rd,Asheville, NC 28805",35.577628,-82.520926,,M  F: 8:00AM-10:00PM Sat: 9:00AM-6:00PM Sun: 10:00AM-6:00PM,,"Digital photo pickup, Printer cartridge refills, Pharmacy drive-thru, Online ordering, Redbox DVD rental, Film roll processing, Shingles Vaccine"
10214,walgreens-3161-lakewood-rd-point-pleasant-nj-08742,(732) 892-0196,"3161 Lakewood Rd,Point Pleasant, NJ 08742",40.0824729,-74.0728446,,M  F: 8:00AM-10:00PM Sat: 9:00AM-6:00PM Sun: 9:00AM-6:00PM,,"Digital photo pickup, Pharmacy drive-thru, Online ordering, Film roll processing, Shingles Vaccine"
10215,walgreens-8595-w-warm-springs-las-vegas-nv-89113,(702) 262-6456,"8595 W Warm Springs,Las Vegas, NV 89113",36.0554496,-115.2790259,,M  F: 9:00AM-9:00PM Sat: 9:00AM-6:00PM Sun: 10:00AM-6:00PM,,"Digital photo pickup, Pharmacy drive-thru, Immunizations, Online ordering, Redbox DVD rental, Film roll processing, Shingles Vaccine"
10218,walgreens-226-liberty-st-penn-yan-ny-14527,(315) 536-1401,"226 Liberty St,Penn Yan, NY 14527",42.660189,-77.056716,,M  F: 9:00AM-9:00PM Sat: 9:00AM-6:00PM Sun: 10:00AM-6:00PM,,"Digital photo pickup, Pharmacy drive-thru, Online ordering, Redbox DVD rental, Film roll processing"
10219,walgreens-929-arsenal-st-watertown-ny-13601,(315) 788-0309,"929 Arsenal St,Watertown, NY 13601",43.976056,-75.932002,,M  F: 8:00AM-10:00PM Sat: 9:00AM-9:00PM Sun: 9:00AM-9:00PM,,"Digital photo pickup, Printer cartridge refills, Pharmacy drive-thru, Online ordering, Redbox DVD rental, Film roll processing"
10220,walgreens-520-broadway-ave-bedford-oh-44146,(440) 232-6500,"520 Broadway Ave,Bedford, OH 44146",41.395316,-81.540862,,M  F: 8:00AM-10:00PM Sat: 9:00AM-6:00PM Sun: 10:00AM-6:00PM,,"Digital photo pickup, Printer cartridge refills, Pharmacy drive-thru, Online ordering, Film roll processing, Shingles Vaccine"
10222,walgreens-2730-broadway-ave-lorain-oh-44052,(440) 244-0593,"2730 Broadway Ave,Lorain, OH 44052",41.4457872,-82.1651205,,M  F: 8:00AM-10:00PM Sat: 9:00AM-6:00PM Sun: 10:00AM-6:00PM,,"Digital photo pickup, Pharmacy drive-thru, Online ordering, Redbox DVD rental, Film roll processing"
10223,walgreens-100-n-32nd-st-muskogee-ok-74401,(918) 687-1319,"100 N 32nd St,Muskogee, OK 74401",35.7550917,-95.4024164,,M  F: 9:00AM-9:00PM Sat: 10:00AM-6:00PM Sun: 10:00AM-6:00PM,,"Digital photo pickup, Pharmacy drive-thru, Online ordering, Redbox DVD rental, Film roll processing"
10226,walgreens-1250-dutch-fork-rd-irmo-sc-29063,(803) 749-7099,"1250 Dutch Fork Rd,Irmo, SC 29063",34.1253071,-81.2323124,,M  F: 8:00AM-10:00PM Sat: 9:00AM-6:00PM Sun: 10:00AM-6:00PM,,"Digital photo pickup, Printer cartridge refills, Pharmacy drive-thru, Online ordering, Film roll processing, Shingles Vaccine"
10227,walgreens-175-forum-drive-columbia-sc-29229,(803) 699-7067,"175 Forum Drive,Columbia, SC 29229",34.1303456,-80.8754961,,M  F: 8:00AM-10:00PM Sat: 9:00AM-6:00PM Sun: 10:00AM-6:00PM,,"Digital photo pickup, Printer cartridge refills, Pharmacy drive-thru, Online ordering, Redbox DVD rental, Film roll processing, Shingles Vaccine"
10228,walgreens-2725-clemson-rd-columbia-sc-29229,(803) 678-4887,"2725 Clemson Rd,Columbia, SC 29229",34.1393903,-80.9334124,,M  F: 8:00AM-10:00PM Sat: 9:00AM-6:00PM Sun: 10:00AM-6:00PM,,"Digital photo pickup, Pharmacy drive-thru, Online ordering, Redbox DVD rental, Film roll processing, Shingles Vaccine"
10229,walgreens-1376-s-main-st-greenwood-sc-29646,(864) 953-2251,"1376 S Main St,Greenwood, SC 29646",34.1764439,-82.15098,,M  F: 8:00AM-10:00PM Sat: 9:00AM-6:00PM Sun: 10:00AM-6:00PM,,"Digital photo pickup, Pharmacy drive-thru, Online ordering, Redbox DVD rental, Film roll processing, Shingles Vaccine"
10230,walgreens-1537-charleston-hwy-west-columbia-sc-29169,(803) 796-3392,"1537 Charleston Hwy,West Columbia, SC 29169",33.971202,-81.0768049,M F: 8:00AM-10:00PM Sat: 8:00AM-10:00PM Sun: 8:00AM-10:00PM,M  F: 8:00AM-10:00PM Sat: 9:00AM-7:00PM Sun: 10:00AM-6:00PM,,"Digital photo pickup, Pharmacy drive-thru, Liquor department (Beer & Wine), Online ordering, Redbox DVD rental, Film roll processing, Shingles Vaccine"
10231,walgreens-1055-e-main-st-alice-tx-78332,(361) 664-2498,"1055 E Main St,Alice, TX 78332",27.7508732,-98.0652232,M F: 8:00AM-10:00PM Sat: 8:00AM-10:00PM Sun: 9:00AM-9:00PM,M  F: 8:00AM-10:00PM Sat: 9:00AM-6:00PM Sun: 10:00AM-6:00PM,,"Digital photo pickup, Printer cartridge refills, Pharmacy drive-thru, Liquor department (Beer & Wine), Online ordering, Redbox DVD rental, Film roll processing"
10232,walgreens-4550-e-palm-valley-blvd-round-rock-tx-78665,(512) 255-9230,"4550 E Palm Valley Blvd,Round Rock, TX 78665",30.532315,-97.615267,M F: 8:00AM-10:00PM Sat: 8:00AM-10:00PM Sun: 8:00AM-10:00PM,M  F: 9:00AM-9:00PM Sat: 10:00AM-6:00PM Sun: 10:00AM-6:00PM,,"Digital photo pickup, Printer cartridge refills, Pharmacy drive-thru, Online ordering, Redbox DVD rental, Film roll processing"
10233,walgreens-7629-richmond-hwy-alexandria-va-22306,(703) 768-5901,"7629 Richmond Hwy,Alexandria, VA 22306",38.750221,-77.082531,M F: 8:00AM-10:00PM Sat: 8:00AM-10:00PM Sun: 8:00AM-10:00PM,M  F: 8:00AM-10:00PM Sat: 9:00AM-6:00PM Sun: 10:00AM-6:00PM,,"Digital photo pickup, Pharmacy drive-thru, Liquor department (Beer & Wine), Cafe W: coffee, baked goods and more, Online ordering, Film roll processing, Shingles Vaccine"
10234,walgreens-1305-n-casaloma-dr-grand-chute-wi-54913,(920) 730-8218,"1305 N Casaloma Dr,Grand Chute, WI 54913",44.273688,-88.47716,M F: 8:00AM-10:00PM Sat: 8:00AM-10:00PM Sun: 8:00AM-10:00PM,M  F: 8:00AM-10:00PM Sat: 9:00AM-6:00PM Sun: 9:00AM-5:00PM,,"Digital photo pickup, Printer cartridge refills, Pharmacy drive-thru, Liquor department (Beer & Wine), Online ordering, Redbox DVD rental, Film roll processing"
10235,walgreens-901-main-street-de-pere-wi-54115,(920) 983-6153,"901 Main Street,De Pere, WI 54115",44.450244,-88.084397,M F: 8:00AM-10:00PM Sat: 8:00AM-9:00PM Sun: 8:00AM-9:00PM,M  F: 8:00AM-8:00PM Sat: 9:00AM-6:00PM Sun: 9:00AM-5:00PM,,"Digital photo pickup, Printer cartridge refills, Pharmacy drive-thru, Liquor department (Beer & Wine), Online ordering, Redbox DVD rental, Film roll processing"
10236,walgreens-1191-westowne-dr-neenah-wi-54956,(920) 725-3152,"1191 Westowne Dr,Neenah, WI 54956",44.1741475,-88.492091,M F: 8:00AM-10:00PM Sat: 8:00AM-10:00PM Sun: 8:00AM-10:00PM,M  F: 8:00AM-8:00PM Sat: 9:00AM-6:00PM Sun: 9:00AM-5:00PM,,"Digital photo pickup, Printer cartridge refills, Pharmacy drive-thru, Liquor department (Beer & Wine), Cafe W: coffee, baked goods and more, Online ordering, Redbox DVD rental, Film roll processing"
10237,walgreens-1100-e-main-st-reedsburg-wi-53959,(608) 524-1228,"1100 E Main St,Reedsburg, WI 53959",43.5319999,-89.993882,M F: 7:00AM-10:00PM Sat: 8:00AM-10:00PM Sun: 8:00AM-10:00PM,M  F: 8:00AM-10:00PM Sat: 9:00AM-6:00PM Sun: 9:00AM-5:00PM,,"Digital photo pickup, Printer cartridge refills, Pharmacy drive-thru, Cafe W: coffee, baked goods and more, Online ordering, Redbox DVD rental, Film roll processing, Shingles Vaccine"
10239,walgreens-1655-state-street-watertown-ny-13601,(315) 785-1088,"1655 State Street,Watertown, NY 13601",43.968141,-75.881817,M F: 8:00AM-10:00PM Sat: 8:00AM-10:00PM Sun: 8:00AM-10:00PM,M  F: 9:00AM-9:00PM Sat: 9:00AM-6:00PM Sun: 10:00AM-6:00PM,,"Digital photo pickup, Pharmacy drive-thru, Online ordering, Redbox DVD rental, Medication Compounding, Film roll processing"
10240,walgreens-5500-highway-5-n-bryant-ar-72022,(501) 847-7420,"5500 Highway 5 N,Bryant, AR 72022",34.6234397,-92.5007597,M F: 8:00AM-10:00PM Sat: 8:00AM-10:00PM Sun: 8:00AM-10:00PM,M  F: 8:00AM-10:00PM Sat: 9:00AM-6:00PM Sun: 10:00AM-6:00PM,,"Digital photo pickup, Pharmacy drive-thru, Online ordering, Redbox DVD rental, Film roll processing"
10241,walgreens-28516-n-el-mirage-rd-peoria-az-85383,(623) 215-8104,"28516 N El Mirage Rd,Peoria, AZ 85383",33.7417628,-112.3220707,M F: 8:00AM-10:00PM Sat: 8:00AM-10:00PM Sun: 8:00AM-10:00PM,M  F: 8:00AM-8:00PM Sat: 9:00AM-5:00PM Sun: 9:00AM-5:00PM,,"Digital photo pickup, Printer cartridge refills, Pharmacy drive-thru, Liquor department (Beer & Wine), Online ordering, Redbox DVD rental, Film roll processing, Shingles Vaccine"
10242,walgreens-78218-varner-rd-palm-desert-ca-92211,(760) 200-4382,"78218 Varner Rd,Palm Desert, CA 92211",33.7577624,-116.2931282,M F: 8:00AM-10:00PM Sat: 8:00AM-10:00PM Sun: 8:00AM-10:00PM,M  F: 8:00AM-9:00PM Sat: 9:00AM-6:00PM Sun: 10:00AM-6:00PM,,"Digital photo pickup, Pharmacy drive-thru, Liquor department (Beer & Wine), Immunizations, Online ordering, Film roll processing, Shingles Vaccine"
10243,walgreens-2420-n-blackstone-ave-fresno-ca-93703,(559) 244-0974,"2420 N Blackstone Ave,Fresno, CA 93703",36.7724681,-119.7904446,M F: 8:00AM-10:00PM Sat: 8:00AM-10:00PM Sun: 8:00AM-10:00PM,M  F: 8:00AM-9:00PM Sat: 9:00AM-5:00PM Sun: 10:00AM-6:00PM,,"Digital photo pickup, Pharmacy drive-thru, Cafe W: coffee, baked goods and more, Online ordering, Film roll processing"
10244,walgreens-1211-boston-post-rd-westbrook-ct-06498,(860) 399-6899,"1211 Boston Post Rd,Westbrook, CT 06498",41.2854145,-72.4480255,M F: 7:30AM-10:00PM Sat: 7:30AM-10:00PM Sun: 7:30AM-10:00PM,M  F: 8:00AM-10:00PM Sat: 9:00AM-6:00PM Sun: 9:00AM-6:00PM,,"Digital photo pickup, Printer cartridge refills, Pharmacy drive-thru, Online ordering, Film roll processing, Shingles Vaccine"
10246,walgreens-5864-fairburn-rd-douglasville-ga-30134,(770) 949-9307,"5864 Fairburn Rd,Douglasville, GA 30134",33.7511515,-84.7261952,Open 24 Hours,M  F: 8:00AM-10:00PM Sat: 8:00AM-10:00PM Sun: 8:00AM-10:00PM,,"Open 24 hours, Digital photo pickup, Printer cartridge refills, Pharmacy drive-thru, Online ordering, Redbox DVD rental, Film roll processing, Shingles Vaccine"
10247,walgreens-5075-alabama-hwy-ringgold-ga-30736,(706) 965-2287,"5075 Alabama Hwy,Ringgold, GA 30736",34.8569286,-85.1436782,M F: 8:00AM-10:00PM Sat: 8:00AM-10:00PM Sun: 8:00AM-10:00PM,M  F: 8:00AM-10:00PM Sat: 9:00AM-6:00PM Sun: 10:00AM-6:00PM,,"Digital photo pickup, Pharmacy drive-thru, Online ordering, Redbox DVD rental, Film roll processing"
10248,walgreens-3505-centerville-highway-snellville-ga-30039,(770) 736-2157,"3505 Centerville Highway,Snellville, GA 30039",33.803474,-84.04356,M F: 8:00AM-10:00PM Sat: 8:00AM-10:00PM Sun: 8:00AM-10:00PM,M  F: 8:00AM-10:00PM Sat: 8:00AM-6:00PM Sun: 9:00AM-6:00PM,,"Digital photo pickup, Pharmacy drive-thru, Online ordering, Redbox DVD rental, Film roll processing, Shingles Vaccine"
10250,walgreens-1420-wright-ave-alma-mi-48801,(989) 463-2704,"1420 Wright Ave,Alma, MI 48801",43.3920177,-84.6666964,M F: 7:00AM-10:00PM Sat: 8:00AM-10:00PM Sun: 9:00AM-9:00PM,M  F: 9:00AM-9:00PM Sat: 10:00AM-6:00PM Sun: 10:00AM-6:00PM,,"Digital photo pickup, Pharmacy drive-thru, Liquor department (Beer & Wine), Online ordering, Redbox DVD rental, Film roll processing, Shingles Vaccine"
10251,walgreens-1410-s-us-highway-27-st.-johns-mi-48879,(989) 224-2052,"1410 S US Highway 27,St. Johns, MI 48879",43.0109243,-84.5545478,M F: 8:00AM-10:00PM Sat: 8:00AM-10:00PM Sun: 9:00AM-9:00PM,M  F: 9:00AM-9:00PM Sat: 10:00AM-6:00PM Sun: 10:00AM-6:00PM,,"Digital photo pickup, Pharmacy drive-thru, Liquor department (Beer & Wine), Online ordering, Redbox DVD rental, Film roll processing, Shingles Vaccine"
10253,walgreens-10-pitts-school-rd--sw-concord-nc-28027,(704) 795-0091,"10 Pitts School Rd  SW,Concord, NC 28027",35.3700554,-80.6655323,M F: 8:00AM-10:00PM Sat: 8:00AM-10:00PM Sun: 8:00AM-10:00PM,M  F: 8:00AM-10:00PM Sat: 9:00AM-6:00PM Sun: 10:00AM-6:00PM,,"Digital photo pickup, Printer cartridge refills, Pharmacy drive-thru, Online ordering, Film roll processing, Shingles Vaccine"
10255,walgreens-5975-weddington-monroe-rd-matthews-nc-28104,(704) 684-6036,"5975 Weddington Monroe Rd,Matthews, NC 28104",35.0011914,-80.698358,M F: 8:00AM-10:00PM Sat: 8:00AM-10:00PM Sun: 8:00AM-10:00PM,M  F: 8:00AM-10:00PM Sat: 9:00AM-6:00PM Sun: 10:00AM-6:00PM,,"Digital photo pickup, Pharmacy drive-thru, Online ordering, Film roll processing"
10256,walgreens-1140-n-main-st-providence-ri-02904,(401) 278-4901,"1140 N Main St,Providence, RI 02904",41.851806,-71.402721,Open 24 Hours,M  F: 8:00AM-10:00PM Sat: 8:00AM-10:00PM Sun: 8:00AM-10:00PM,,"Open 24 hours, Digital photo pickup, Printer cartridge refills, Pharmacy drive-thru, Immunizations, Online ordering, Film roll processing, Shingles Vaccine"
10257,walgreens-395-n-highway-52-moncks-corner-sc-29461,(843) 899-6601,"395 N Highway 52,Moncks Corner, SC 29461",33.201603,-79.990899,Open 24 Hours,Open 24 Hours,,"Open 24 hours, Digital photo pickup, Printer cartridge refills, Pharmacy drive-thru, Online ordering, Redbox DVD rental, Medication Compounding, Film roll processing, Shingles Vaccine"
10258,walgreens-201-fm-1821-mineral-wells-tx-76067,(940) 325-6084,"201 FM 1821,Mineral Wells, TX 76067",32.821005,-98.0837169,M F: 8:00AM-10:00PM Sat: 8:00AM-10:00PM Sun: 8:00AM-10:00PM,M  F: 8:00AM-10:00PM Sat: 9:00AM-6:00PM Sun: 10:00AM-6:00PM,,"Digital photo pickup, Pharmacy drive-thru, Online ordering, Redbox DVD rental, Film roll processing, Shingles Vaccine"
10259,walgreens-10660-eastex-freeway-houston-tx-77093,(713) 691-4250,"10660 Eastex Freeway,Houston, TX 77093",29.86942,-95.329307,M F: 7:00AM-10:00PM Sat: 7:00AM-10:00PM Sun: 7:00AM-10:00PM,M  F: 8:00AM-10:00PM Sat: 9:00AM-6:00PM Sun: 10:00AM-6:00PM,,"Digital photo pickup, Printer cartridge refills, Pharmacy drive-thru, Online ordering, Redbox DVD rental, Film roll processing"
10260,walgreens-3230-e-chandler-heights-gilbert-az-85298,(480) 214-4894,"3230 E Chandler Heights,Gilbert, AZ 85298",33.233824,-111.7232044,M F: 8:00AM-10:00PM Sat: 8:00AM-10:00PM Sun: 8:00AM-10:00PM,M  F: 9:00AM-9:00PM Sat: 10:00AM-6:00PM Sun: 10:00AM-6:00PM,,"Digital photo pickup, Pharmacy drive-thru, Liquor department (Beer & Wine), Online ordering, Redbox DVD rental, Film roll processing"
10261,walgreens-180-main-st-deep-river-ct-06417,(860) 526-8052,"180 Main St,Deep River, CT 06417",41.3856703,-72.435697,M F: 8:00AM-10:00PM Sat: 8:00AM-10:00PM Sun: 8:00AM-10:00PM,M  F: 8:00AM-10:00PM Sat: 9:00AM-6:00PM Sun: 9:00AM-6:00PM,,"Digital photo pickup, Pharmacy drive-thru, Online ordering, Film roll processing, Shingles Vaccine"
10262,walgreens-9830-long-beach-blvd-south-gate-ca-90280,(323) 357-3925,"9830 Long Beach Blvd,South Gate, CA 90280",33.945896,-118.215885,M F: 8:00AM-11:00PM Sat: 8:00AM-11:00PM Sun: 8:00AM-11:00PM,M  F: 8:00AM-9:00PM Sat: 9:00AM-6:00PM Sun: 10:00AM-6:00PM,,"Digital photo pickup, Printer cartridge refills, Pharmacy drive-thru, Online ordering, Redbox DVD rental, Film roll processing"
10264,walgreens-28875-s-dixie-hwy-homestead-fl-33033,(305) 245-2928,"28875 S Dixie HWY,Homestead, FL 33033",25.498703,-80.4462549,Open 24 Hours,Open 24 Hours,,"Open 24 hours, Digital photo pickup, Printer cartridge refills, Pharmacy drive-thru, Online ordering, Film roll processing"
10265,walgreens-4535-roswell-rd-ne-sandy-springs-ga-30342,(404) 236-0838,"4535 Roswell Rd NE,Sandy Springs, GA 30342",33.8786,-84.379396,M F: 7:00AM-10:00PM Sat: 7:00AM-10:00PM Sun: 7:00AM-10:00PM,M  F: 8:00AM-10:00PM Sat: 8:00AM-6:00PM Sun: 9:00AM-6:00PM,,"Digital photo pickup, Pharmacy drive-thru, Online ordering, Film roll processing"
10266,walgreens-101-torras-drive-brunswick-ga-31520,(912) 267-0415,"101 Torras Drive,Brunswick, GA 31520",31.161839,-81.47533,M F: 7:00AM-10:00PM Sat: 7:00AM-10:00PM Sun: 7:00AM-10:00PM,M  F: 9:00AM-9:00PM Sat: 9:00AM-6:00PM Sun: 10:00AM-6:00PM,,"Digital photo pickup, Pharmacy drive-thru, Online ordering, Redbox DVD rental, Film roll processing"
10267,walgreens-5831-w-park-avenue-houma-la-70364,(985) 868-9118,"5831 W Park Avenue,Houma, LA 70364",29.5978792,-90.7259814,M F: 7:00AM-10:00PM Sat: 8:00AM-10:00PM Sun: 8:00AM-10:00PM,M  F: 8:00AM-10:00PM Sat: 9:00AM-6:00PM Sun: 10:00AM-6:00PM,,"Digital photo pickup, Pharmacy drive-thru, Liquor department (Beer & Wine), Online ordering, Film roll processing"
10268,walgreens-20-mechanic-st-bellingham-ma-02019,(508) 966-1691,"20 Mechanic St,Bellingham, MA 02019",42.086518,-71.4735369,M F: 8:00AM-10:00PM Sat: 8:00AM-10:00PM Sun: 8:00AM-10:00PM,M  F: 8:00AM-10:00PM Sat: 9:00AM-6:00PM Sun: 10:00AM-6:00PM,,"Digital photo pickup, Printer cartridge refills, Pharmacy drive-thru, Online ordering, Film roll processing"
10269,walgreens-32-main-st-lakeville-ma-02347,(508) 923-6903,"32 Main St,Lakeville, MA 02347",41.8757024,-70.9247901,M F: 8:00AM-10:00PM Sat: 8:00AM-10:00PM Sun: 8:00AM-10:00PM,M  F: 8:00AM-10:00PM Sat: 9:00AM-6:00PM Sun: 10:00AM-6:00PM,,"Digital photo pickup, Printer cartridge refills, Pharmacy drive-thru, Online ordering, Film roll processing"
10270,walgreens-1000-hugh-ward-blvd-flowood-ms-39232,(601) 992-3426,"1000 Hugh Ward Blvd,Flowood, MS 39232",32.3550351,-90.0243849,M F: 7:00AM-10:00PM Sat: 8:00AM-10:00PM Sun: 8:00AM-10:00PM,M  F: 8:00AM-10:00PM Sat: 9:00AM-6:00PM Sun: 10:00AM-6:00PM,,"Digital photo pickup, Printer cartridge refills, Pharmacy drive-thru, Liquor department (Beer & Wine), Immunizations, Online ordering, Film roll processing, Shingles Vaccine"
10272,walgreens-392-bedford-st-whitman-ma-02382,(781) 447-0823,"392 Bedford St,Whitman, MA 02382",42.0713197,-70.9479169,M F: 8:00AM-10:00PM Sat: 8:00AM-10:00PM Sun: 8:00AM-10:00PM,M  F: 8:00AM-10:00PM Sat: 9:00AM-6:00PM Sun: 10:00AM-6:00PM,,"Digital photo pickup, Printer cartridge refills, Pharmacy drive-thru, Online ordering, Film roll processing"
10273,walgreens-2209-highway-11-north-picayune-ms-39466,(601) 799-2087,"2209 Highway 11 North,Picayune, MS 39466",30.561435,-89.6645763,M F: 8:00AM-10:00PM Sat: 8:00AM-10:00PM Sun: 8:00AM-10:00PM,M  F: 8:00AM-10:00PM Sat: 9:00AM-6:00PM Sun: 10:00AM-6:00PM,,"Digital photo pickup, Printer cartridge refills, Pharmacy drive-thru, Liquor department (Beer & Wine), Immunizations, Online ordering, Redbox DVD rental, Film roll processing, Shingles Vaccine"
10274,walgreens-382-asheville-hwy-brevard-nc-28712,(828) 877-8600,"382 Asheville Hwy,Brevard, NC 28712",35.247871,-82.722299,M F: 8:00AM-10:00PM Sat: 8:00AM-10:00PM Sun: 9:00AM-9:00PM,M  F: 8:00AM-8:00PM Sat: 9:00AM-6:00PM Sun: 10:00AM-6:00PM,,"Digital photo pickup, Printer cartridge refills, Pharmacy drive-thru, Liquor department (Beer & Wine), Online ordering, Film roll processing, Shingles Vaccine"
10275,walgreens-5040-beatties-ford-rd-charlotte-nc-28216,(704) 394-1714,"5040 Beatties Ford Rd,Charlotte, NC 28216",35.3046972,-80.8572308,M F: 8:00AM-10:00PM Sat: 8:00AM-10:00PM Sun: 8:00AM-10:00PM,M  F: 8:00AM-10:00PM Sat: 8:00AM-10:00PM Sun: 8:00AM-10:00PM,,"Digital photo pickup, Pharmacy drive-thru, Liquor department (Beer & Wine), Online ordering, Redbox DVD rental, Film roll processing"
10276,walgreens-3601-davis-dr-morrisville-nc-27560,(919) 468-6880,"3601 Davis Dr,Morrisville, NC 27560",35.820698,-78.848637,M F: 7:00AM-10:00PM Sat: 7:00AM-10:00PM Sun: 7:00AM-10:00PM,M  F: 8:00AM-10:00PM Sat: 9:00AM-6:00PM Sun: 10:00AM-6:00PM,,"Digital photo pickup, Pharmacy drive-thru, Liquor department (Beer & Wine), Online ordering, Film roll processing, Shingles Vaccine"
10278,walgreens-606-long-beach-blvd-long-beach-ny-11561,(516) 897-7901,"606 Long Beach Blvd,Long Beach, NY 11561",40.5920567,-73.6569845,M F: 8:00AM-10:00PM Sat: 8:00AM-10:00PM Sun: 8:00AM-10:00PM,M  F: 8:00AM-10:00PM Sat: 9:00AM-6:00PM Sun: 10:00AM-6:00PM,,"Digital photo pickup, Pharmacy drive-thru, Online ordering, Film roll processing"
10279,walgreens-1000-2nd-ave-new-york-ny-10022,(212) 752-1909,"1000 2nd Ave,New York, NY 10022",40.7565798,-73.967083,M F: 7:00AM-12:00AM Sat: 7:00AM-12:00AM Sun: 7:00AM-12:00AM,M  F: 8:00AM-10:00PM Sat: 9:00AM-6:00PM Sun: 10:00AM-6:00PM,,"Digital photo pickup, Online ordering, Film roll processing"
10282,walgreens-30-pine-creek-rd-wexford-pa-15090,(412) 366-2456,"30 Pine Creek Rd,Wexford, PA 15090",40.5866568,-80.043322,M F: 8:00AM-10:00PM Sat: 8:00AM-10:00PM Sun: 8:00AM-10:00PM,M  F: 9:00AM-9:00PM Sat: 9:00AM-6:00PM Sun: 10:00AM-6:00PM,,"Digital photo pickup, Printer cartridge refills, Pharmacy drive-thru, Cafe W: coffee, baked goods and more, Online ordering, Redbox DVD rental, Film roll processing, Shingles Vaccine"
10283,walgreens-6420-82nd-st.-lubbock-tx-79401,(806) 783-9041,"6420 82nd St.,Lubbock, TX 79401",33.520363,-101.956447,M F: 7:00AM-10:00PM Sat: 7:00AM-10:00PM Sun: 9:00AM-9:00PM,M  F: 8:00AM-10:00PM Sat: 9:00AM-6:00PM Sun: 10:00AM-6:00PM,,"Digital photo pickup, Printer cartridge refills, Pharmacy drive-thru, Liquor department (Beer & Wine), Immunizations, Online ordering, Redbox DVD rental, Film roll processing, Shingles Vaccine"
10286,walgreens-12002-mccormick-jacksonville-fl-32225,(904) 646-1770,"12002 Mccormick,Jacksonville, FL 32225",30.3601717,-81.5025254,M F: 8:00AM-10:00PM Sat: 8:00AM-10:00PM Sun: 8:00AM-10:00PM,M  F: 8:00AM-10:00PM Sat: 8:00AM-6:00PM Sun: 9:00AM-6:00PM,,"Digital photo pickup, Printer cartridge refills, Pharmacy drive-thru, Online ordering, Redbox DVD rental, Film roll processing"
10287,walgreens-9848-gilead-road-huntersville-nc-28078,(704) 948-7237,"9848 Gilead Road,Huntersville, NC 28078",35.406546,-80.863001,M F: 8:00AM-10:00PM Sat: 8:00AM-10:00PM Sun: 8:00AM-10:00PM,M  F: 8:00AM-10:00PM Sat: 9:00AM-6:00PM Sun: 10:00AM-6:00PM,,"Digital photo pickup, Pharmacy drive-thru, Liquor department (Beer & Wine), Online ordering, Medication Compounding, Film roll processing, Shingles Vaccine"
10288,walgreens-196-w-carleton-rd-hillsdale-mi-49242,(517) 439-4255,"196 W Carleton Rd,Hillsdale, MI 49242",41.9290676,-84.6414741,M F: 8:00AM-10:00PM Sat: 8:00AM-10:00PM Sun: 9:00AM-9:00PM,M  F: 9:00AM-9:00PM Sat: 10:00AM-6:00PM Sun: 10:00AM-6:00PM,,"Digital photo pickup, Pharmacy drive-thru, Liquor department (Beer & Wine), Online ordering, Film roll processing, Shingles Vaccine"
10289,walgreens-18267-carson-ct-elk-river-mn-55330,(763) 252-1175,"18267 Carson Ct,Elk River, MN 55330",45.3025478,-93.5562994,M F: 7:00AM-10:00PM Sat: 7:00AM-10:00PM Sun: 7:00AM-10:00PM,M  F: 8:00AM-10:00PM Sat: 9:00AM-6:00PM Sun: 10:00AM-6:00PM,,"Digital photo pickup, Printer cartridge refills, Pharmacy drive-thru, Online ordering, Redbox DVD rental, Film roll processing"
10290,walgreens-1505-highway-43-s-picayune-ms-39466,(601) 889-9509,"1505 Highway 43 S,Picayune, MS 39466",30.5479697,-89.675696,M F: 8:00AM-10:00PM Sat: 8:00AM-10:00PM Sun: 8:00AM-10:00PM,M  F: 8:00AM-10:00PM Sat: 9:00AM-6:00PM Sun: 10:00AM-6:00PM,,"Digital photo pickup, Pharmacy drive-thru, Liquor department (Beer & Wine), Online ordering, Redbox DVD rental, Film roll processing"
10291,walgreens-335-main-st-johnson-city-ny-13790,(607) 777-9801,"335 Main St,Johnson City, NY 13790",42.116149,-75.959627,M F: 8:00AM-10:00PM Sat: 8:00AM-10:00PM Sun: 8:00AM-10:00PM,M  F: 8:00AM-10:00PM Sat: 9:00AM-6:00PM Sun: 10:00AM-6:00PM,,"Digital photo pickup, Printer cartridge refills, Pharmacy drive-thru, Online ordering, Redbox DVD rental, Film roll processing"
10292,walgreens-723-canton-st-ogdensburg-ny-13669,(315) 393-9214,"723 Canton St,Ogdensburg, NY 13669",44.6899147,-75.4770683,M F: 7:30AM-10:00PM Sat: 8:00AM-9:00PM Sun: 9:00AM-9:00PM,M  F: 9:00AM-9:00PM Sat: 9:00AM-6:00PM Sun: 10:00AM-6:00PM,,"Digital photo pickup, Pharmacy drive-thru, Liquor department (Beer & Wine), Online ordering, Redbox DVD rental, Film roll processing"
10293,walgreens-173-market-st-potsdam-ny-13676,(315) 265-6192,"173 Market St,Potsdam, NY 13676",44.6837226,-74.9874873,M F: 8:00AM-10:00PM Sat: 8:00AM-10:00PM Sun: 8:00AM-10:00PM,M  F: 9:00AM-9:00PM Sat: 9:00AM-6:00PM Sun: 10:00AM-6:00PM,,"Digital photo pickup, Printer cartridge refills, Pharmacy drive-thru, Liquor department (Beer & Wine), Online ordering, Film roll processing"
10295,walgreens-1321-delaware-ave-marion-oh-43302,(740) 386-5146,"1321 Delaware Ave,Marion, OH 43302",40.5658658,-83.1206579,M F: 8:00AM-10:00PM Sat: 8:00AM-10:00PM Sun: 8:00AM-10:00PM,M  F: 8:00AM-10:00PM Sat: 9:00AM-6:00PM Sun: 10:00AM-6:00PM,,"Digital photo pickup, Pharmacy drive-thru, Liquor department (Beer & Wine), Online ordering, Redbox DVD rental, Film roll processing, Shingles Vaccine"
10299,walgreens-401-n-main-ave-erwin-tn-37650,(423) 743-4662,"401 N Main Ave,Erwin, TN 37650",36.148166,-82.413647,M F: 7:00AM-9:00PM Sat: 7:00AM-9:00PM Sun: 9:00AM-9:00PM,M  F: 8:00AM-8:00PM Sat: 9:00AM-6:00PM Sun: 10:00AM-6:00PM,,"Digital photo pickup, Pharmacy drive-thru, Liquor department (Beer & Wine), Immunizations, Online ordering, Redbox DVD rental, Film roll processing, Shingles Vaccine"
10300,walgreens-4305-n-conway-ave-palmhurst-tx-78573,(956) 519-7523,"4305 N Conway Ave,Palmhurst, TX 78573",26.2599329,-98.3184016,M F: 8:00AM-10:00PM Sat: 8:00AM-10:00PM Sun: 9:00AM-9:00PM,M  F: 8:00AM-10:00PM Sat: 9:00AM-6:00PM Sun: 10:00AM-6:00PM,,"Digital photo pickup, Printer cartridge refills, Pharmacy drive-thru, Liquor department (Beer & Wine), Online ordering, Redbox DVD rental, Film roll processing"
10301,walgreens-517-n-main-st-viroqua-wi-54665,(608) 637-8405,"517 N Main St,Viroqua, WI 54665",43.5599163,-90.8888794,M F: 8:00AM-10:00PM Sat: 8:00AM-10:00PM Sun: 8:00AM-10:00PM,M  F: 8:00AM-10:00PM Sat: 9:00AM-6:00PM Sun: 9:00AM-5:00PM,,"Digital photo pickup, Pharmacy drive-thru, Liquor department (Beer & Wine), Online ordering, Redbox DVD rental, Film roll processing"
10302,walgreens-4106-portsmouth-blvd-portsmouth-va-23701,(757) 391-2850,"4106 Portsmouth Blvd,Portsmouth, VA 23701",36.8176838,-76.3688411,M F: 8:00AM-10:00PM Sat: 8:00AM-10:00PM Sun: 8:00AM-10:00PM,M  F: 8:00AM-10:00PM Sat: 9:00AM-6:00PM Sun: 10:00AM-6:00PM,,"Digital photo pickup, Pharmacy drive-thru, Liquor department (Beer & Wine), Immunizations, Online ordering, Redbox DVD rental, Film roll processing, Shingles Vaccine"
10304,walgreens-14308-meridian-ave-e-puyallup-wa-98375,(253) 604-1051,"14308 Meridian Ave E,Puyallup, WA 98375",47.1263505,-122.293096,M F: 8:00AM-10:00PM Sat: 8:00AM-10:00PM Sun: 8:00AM-10:00PM,M  F: 9:00AM-9:00PM Sat: 10:00AM-6:00PM Sun: 10:00AM-6:00PM,,"Digital photo pickup, Pharmacy drive-thru, Liquor department (Beer & Wine), Online ordering, Film roll processing"
10306,walgreens-3510-evergreen-pkwy-evergreen-co-80439,(303) 928-8982,"3510 Evergreen Pkwy,Evergreen, CO 80439",39.651324,-105.3437979,M F: 7:00AM-10:00PM Sat: 8:00AM-10:00PM Sun: 8:00AM-10:00PM,M  F: 8:00AM-10:00PM Sat: 10:00AM-6:00PM Sun: 10:00AM-6:00PM,,"Digital photo pickup, Printer cartridge refills, Pharmacy drive-thru, Immunizations, Online ordering, Film roll processing, Shingles Vaccine"
10307,walgreens-240-west-park-dr-grand-junction-co-81502,(970) 208-1252,"240 West Park Dr,Grand Junction, CO 81502",39.091374,-108.572742,M F: 8:00AM-10:00PM Sat: 8:00AM-10:00PM Sun: 8:00AM-10:00PM,M  F: 8:00AM-10:00PM Sat: 9:00AM-6:00PM Sun: 10:00AM-6:00PM,,"Digital photo pickup, Pharmacy drive-thru, Immunizations, Online ordering, Redbox DVD rental, Medication Compounding, Film roll processing, Shingles Vaccine"
10308,walgreens-1300-14th-street-sw-loveland-co-80537,(970) 612-1125,"1300 14th Street SW,Loveland, CO 80537",40.377648,-105.094925,M F: 8:00AM-10:00PM Sat: 8:00AM-10:00PM Sun: 8:00AM-10:00PM,M  F: 8:00AM-10:00PM Sat: 9:00AM-6:00PM Sun: 10:00AM-6:00PM,,"Digital photo pickup, Pharmacy drive-thru, Immunizations and travel vaccines, Online ordering, Redbox DVD rental, Film roll processing, Shingles Vaccine"
10309,walgreens-1036-west-main-st-branford-ct-06405,(203) 488-9059,"1036 West Main St,Branford, CT 06405",41.2753312,-72.8300847,M F: 8:00AM-10:00PM Sat: 8:00AM-10:00PM Sun: 8:00AM-10:00PM,M  F: 8:00AM-10:00PM Sat: 9:00AM-6:00PM Sun: 9:00AM-6:00PM,,"Digital photo pickup, Printer cartridge refills, Pharmacy drive-thru, Online ordering, Film roll processing"
10310,walgreens-780-e-main-st-stamford-ct-06902,(203) 353-9117,"780 E Main St,Stamford, CT 06902",41.0552251,-73.5283807,M F: 8:00AM-10:00PM Sat: 8:00AM-10:00PM Sun: 8:00AM-10:00PM,M  F: 8:00AM-10:00PM Sat: 9:00AM-6:00PM Sun: 9:00AM-6:00PM,,"Digital photo pickup, Pharmacy drive-thru, Online ordering, Film roll processing"
10311,walgreens-3524-connecticut-ave-nw-washington-dc-20008,(202) 686-6927,"3524 Connecticut Ave NW,Washington, DC 20008",38.936367,-77.059521,M F: 8:00AM-10:00PM Sat: 8:00AM-10:00PM Sun: 8:00AM-10:00PM,M  F: 8:00AM-10:00PM Sat: 9:00AM-6:00PM Sun: 10:00AM-6:00PM,,"Digital photo pickup, Online ordering"
10312,walgreens-85-beverly-parkway-pensacola-fl-32505,(850) 432-2841,"85 Beverly Parkway,Pensacola, FL 32505",30.466251,-87.242548,M F: 7:00AM-10:00PM Sat: 7:00AM-10:00PM Sun: 7:00AM-10:00PM,M  F: 8:00AM-10:00PM Sat: 9:00AM-6:00PM Sun: 10:00AM-6:00PM,,"Digital photo pickup, Pharmacy drive-thru, Online ordering, Redbox DVD rental, Film roll processing"
10314,walgreens-260-w-honeysuckle-ave-hayden-id-83835,(208) 762-0185,"260 W Honeysuckle Ave,Hayden, ID 83835",47.7517568,-116.7891318,M F: 8:00AM-10:00PM Sat: 8:00AM-10:00PM Sun: 8:00AM-10:00PM,M  F: 9:00AM-9:00PM Sat: 10:00AM-6:00PM Sun: 10:00AM-6:00PM,,"Digital photo pickup, Pharmacy drive-thru, Online ordering, Redbox DVD rental, Film roll processing"
10315,walgreens-2005-centennial-blvd-independence-ky-41051,(859) 363-3605,"2005 Centennial Blvd,Independence, KY 41051",38.9295524,-84.5443542,M F: 8:00AM-10:00PM Sat: 8:00AM-10:00PM Sun: 8:00AM-10:00PM,M  F: 8:00AM-10:00PM Sat: 9:00AM-6:00PM Sun: 10:00AM-6:00PM,,"Digital photo pickup, Printer cartridge refills, Pharmacy drive-thru, Liquor department (Beer & Wine), Online ordering, Film roll processing, Shingles Vaccine"
10316,walgreens-4001-canal-st-new-orleans-la-70119,(504) 483-2486,"4001 Canal St,New Orleans, LA 70119",29.97456,-90.099497,M F: 7:00AM-11:00PM Sat: 7:00AM-11:00PM Sun: 7:00AM-11:00PM,M  F: 8:00AM-10:00PM Sat: 9:00AM-6:00PM Sun: 10:00AM-6:00PM,,"Digital photo pickup, Pharmacy drive-thru, Online ordering, Film roll processing, HIV Medication Support"
10318,walgreens-78-turnpike-road-southboro-ma-01772,(508) 786-5980,"78 Turnpike Road,Southboro, MA 01772",42.294188,-71.506018,M F: 7:00AM-10:00PM Sat: 7:00AM-10:00PM Sun: 7:00AM-10:00PM,M  F: 8:00AM-10:00PM Sat: 9:00AM-6:00PM Sun: 10:00AM-6:00PM,,"Digital photo pickup, Printer cartridge refills, Pharmacy drive-thru, Online ordering, Redbox DVD rental, Film roll processing"
10319,walgreens-472-lincoln-st-worcester-ma-01605,(508) 856-7923,"472 Lincoln St,Worcester, MA 01605",42.293529,-71.778193,M F: 8:00AM-10:00PM Sat: 8:00AM-10:00PM Sun: 8:00AM-10:00PM,M  F: 8:00AM-10:00PM Sat: 9:00AM-6:00PM Sun: 10:00AM-6:00PM,,"Digital photo pickup, Pharmacy drive-thru, Online ordering, Redbox DVD rental, Film roll processing"
10321,walgreens-348-highway-90-waveland-ms-39576,(228) 467-4436,"348 Highway 90,Waveland, MS 39576",30.30629,-89.3778104,M F: 8:00AM-10:00PM Sat: 8:00AM-10:00PM Sun: 8:00AM-10:00PM,M  F: 8:00AM-10:00PM Sat: 9:00AM-6:00PM Sun: 10:00AM-6:00PM,,"Digital photo pickup, Pharmacy drive-thru, Liquor department (Beer & Wine), Immunizations, Online ordering, Redbox DVD rental, Film roll processing, Shingles Vaccine"
10324,walgreens-500-egg-harbor-rd-sewell-nj-08080,(856) 256-7812,"500 Egg Harbor Rd,Sewell, NJ 08080",39.742475,-75.068729,Open 24 Hours,Open 24 Hours,,"Open 24 hours, Digital photo pickup, Printer cartridge refills, Pharmacy drive-thru, Online ordering, Redbox DVD rental, Film roll processing, Shingles Vaccine"
10326,walgreens-713-brighton-beach-ave-brooklyn-ny-11235,(718) 615-3103,"713 Brighton Beach Ave,Brooklyn, NY 11235",40.5781311,-73.9599691,M F: 8:00AM-10:00PM Sat: 8:00AM-10:00PM Sun: 8:00AM-10:00PM,M  F: 8:00AM-10:00PM Sat: 9:00AM-6:00PM Sun: 9:00AM-6:00PM,,"Digital photo pickup, Printer cartridge refills, Online ordering"
10327,walgreens-1000-e-main-street-greenville-oh-45331,(937) 547-9324,"1000 E Main Street,Greenville, OH 45331",40.1091792,-84.6232327,M F: 8:00AM-10:00PM Sat: 8:00AM-10:00PM Sun: 8:00AM-10:00PM,M  F: 9:00AM-9:00PM Sat: 9:00AM-6:00PM Sun: 10:00AM-6:00PM,,"Digital photo pickup, Pharmacy drive-thru, Online ordering, Film roll processing, Shingles Vaccine"
10328,walgreens-7888-york-road-parma-oh-44130,(440) 845-4903,"7888 York Road,Parma, OH 44130",41.351242,-81.760502,M F: 8:00AM-10:00PM Sat: 8:00AM-10:00PM Sun: 8:00AM-10:00PM,M  F: 8:00AM-10:00PM Sat: 9:00AM-6:00PM Sun: 10:00AM-6:00PM,,"Digital photo pickup, Printer cartridge refills, Pharmacy drive-thru, Liquor department (Beer & Wine), Online ordering, Redbox DVD rental, Film roll processing, Shingles Vaccine"
10329,walgreens-901-s-5th-st-hartsville-sc-29550,(843) 332-4523,"901 S 5th St,Hartsville, SC 29550",34.3526709,-80.0693508,M F: 8:00AM-10:00PM Sat: 8:00AM-10:00PM Sun: 8:00AM-10:00PM,M  F: 8:00AM-10:00PM Sat: 9:00AM-6:00PM Sun: 10:00AM-6:00PM,,"Digital photo pickup, Pharmacy drive-thru, Liquor department (Beer & Wine), Online ordering, Redbox DVD rental, Film roll processing, Shingles Vaccine"
1033,walgreens-811-green-bay-road-wilmette-il-60091,(847) 256-0881,"811 Green Bay Road,Wilmette, IL 60091",42.0781762,-87.7106321,M F: 7:00AM-11:00PM Sat: 7:00AM-11:00PM Sun: 8:00AM-10:00PM,M  F: 8:00AM-10:00PM Sat: 8:00AM-10:00PM Sun: 8:00AM-10:00PM,,"Digital photo pickup, Printer cartridge refills, Immunizations, Online ordering, Film roll processing, Shingles Vaccine"
10330,walgreens-2340-hwy-394-blountville-tn-37617,(423) 323-1656,"2340 Hwy 394,Blountville, TN 37617",36.523321,-82.311278,M F: 8:00AM-10:00PM Sat: 8:00AM-10:00PM Sun: 9:00AM-9:00PM,M  F: 8:00AM-10:00PM Sat: 9:00AM-6:00PM Sun: 10:00AM-6:00PM,,"Digital photo pickup, Pharmacy drive-thru, Liquor department (Beer Only), Immunizations, Online ordering, Redbox DVD rental, Film roll processing, Shingles Vaccine"
10331,walgreens-13926-lee-hwy-centreville-va-20120,(703) 259-6200,"13926 Lee Hwy,Centreville, VA 20120",38.8388777,-77.4291855,Open 24 Hours,Open 24 Hours,,"Open 24 hours, Digital photo pickup, Pharmacy drive-thru, Liquor department (Beer & Wine), Immunizations, Cafe W: coffee, baked goods and more, Online ordering, Shingles Vaccine"
10332,walgreens-3633-bridge-road-suffolk-va-23435,(757) 686-4793,"3633 Bridge Road,Suffolk, VA 23435",36.861674,-76.465304,M F: 8:00AM-10:00PM Sat: 8:00AM-10:00PM Sun: 8:00AM-10:00PM,M  F: 8:00AM-10:00PM Sat: 9:00AM-6:00PM Sun: 10:00AM-6:00PM,,"Digital photo pickup, Pharmacy drive-thru, Liquor department (Beer & Wine), Immunizations, Online ordering, Redbox DVD rental, Medication Compounding, Film roll processing, Shingles Vaccine"
10333,walgreens-3150-green-valley-rd-birmingham-al-35243,(205) 967-7483,"3150 Green Valley Rd,Birmingham, AL 35243",33.4602955,-86.7330857,M F: 8:00AM-10:00PM Sat: 8:00AM-10:00PM Sun: 8:00AM-10:00PM,M  F: 8:00AM-10:00PM Sat: 9:00AM-6:00PM Sun: 10:00AM-6:00PM,,"Digital photo pickup, Printer cartridge refills, Pharmacy drive-thru, Liquor department (Beer & Wine), Online ordering, Redbox DVD rental, Film roll processing, Shingles Vaccine"
10334,walgreens-1790-shaw-ave-clovis-ca-93611,(559) 299-5823,"1790 Shaw Ave,Clovis, CA 93611",36.807999,-119.682681,M F: 8:00AM-10:00PM Sat: 8:00AM-10:00PM Sun: 8:00AM-10:00PM,M  F: 8:00AM-9:00PM Sat: 9:00AM-5:00PM Sun: 10:00AM-6:00PM,,"Digital photo pickup, Printer cartridge refills, Pharmacy drive-thru, Liquor department (Beer & Wine), Cafe W: coffee, baked goods and more, Online ordering, Film roll processing"
10335,walgreens-2424-n-brawley-ave-fresno-ca-93722,(559) 277-5912,"2424 N Brawley Ave,Fresno, CA 93722",36.772435,-119.86175,M F: 8:00AM-10:00PM Sat: 8:00AM-10:00PM Sun: 8:00AM-10:00PM,M  F: 9:00AM-9:00PM Sat: 9:00AM-5:00PM Sun: 10:00AM-6:00PM,,"Digital photo pickup, Pharmacy drive-thru, Liquor department (Beer & Wine), Online ordering, Redbox DVD rental, Film roll processing"
10336,walgreens-1538-e-chapman-ave-orange-ca-92866,(714) 288-1790,"1538 E Chapman Ave,Orange, CA 92866",33.787264,-117.836961,Open 24 Hours,Open 24 Hours,,"Open 24 hours, Digital photo pickup, Pharmacy drive-thru, Immunizations, Online ordering, Medication Compounding, Film roll processing, Shingles Vaccine"
10339,walgreens-501-n-convent-street-bourbonnais-il-60914,(815) 937-0632,"501 N Convent Street,Bourbonnais, IL 60914",41.163085,-87.8759089,M F: 7:00AM-10:00PM Sat: 8:00AM-10:00PM Sun: 8:00AM-10:00PM,M  F: 8:00AM-10:00PM Sat: 9:00AM-6:00PM Sun: 10:00AM-6:00PM,,"Digital photo pickup, Printer cartridge refills, Pharmacy drive-thru, Immunizations, Online ordering, Film roll processing, Shingles Vaccine"
1034,walgreens-112-w-steuben-street-crafton-pa-15205,(412) 928-0146,"112 W Steuben Street,Crafton, PA 15205",40.4391533,-80.072632,M F: 7:00AM-10:00PM Sat: 7:00AM-10:00PM Sun: 7:00AM-10:00PM,M  F: 8:00AM-10:00PM Sat: 8:00AM-10:00PM Sun: 8:00AM-10:00PM,M  F: 8:00AM-7:30PM Sat: 8:30AM-4:00PM Sun: 8:30AM-4:00PM,"Digital photo pickup, Printer cartridge refills, Pharmacy drive-thru, Immunizations in Take Care Clinic, Online ordering, Redbox DVD rental, Film roll processing, Shingles Vaccine"
10340,walgreens-3606-n-newton-st-jasper-in-47546,(812) 481-1513,"3606 N Newton St,Jasper, IN 47546",38.422697,-86.937453,M F: 8:00AM-10:00PM Sat: 8:00AM-10:00PM Sun: 8:00AM-10:00PM,M  F: 9:00AM-9:00PM Sat: 9:00AM-6:00PM Sun: 12:00PM-6:00PM,,"Digital photo pickup, Printer cartridge refills, Pharmacy drive-thru, Liquor department (Beer & Wine), Online ordering, Redbox DVD rental, Film roll processing"
10342,walgreens-897-main-st-melrose-ma-02176,(781) 665-1329,"897 Main St,Melrose, MA 02176",42.465276,-71.061041,Open 24 Hours,Open 24 Hours,,"Open 24 hours, Digital photo pickup, Printer cartridge refills, Pharmacy drive-thru, Online ordering, Film roll processing"
10345,walgreens-7628-penn-ave-pittsburgh-pa-15221,(412) 247-5601,"7628 Penn Ave,Pittsburgh, PA 15221",40.4468432,-79.8944603,M F: 8:00AM-10:00PM Sat: 8:00AM-10:00PM Sun: 8:00AM-10:00PM,M  F: 8:00AM-10:00PM Sat: 9:00AM-6:00PM Sun: 10:00AM-6:00PM,,"Digital photo pickup, Pharmacy drive-thru, Cafe W: coffee, baked goods and more, Online ordering, Film roll processing, Shingles Vaccine"
10347,walgreens-901-s-burr-st-mitchell-sd-57301,(605) 996-3179,"901 S Burr St,Mitchell, SD 57301",43.7016954,-98.0185292,M F: 8:00AM-10:00PM Sat: 8:00AM-10:00PM Sun: 8:00AM-10:00PM,M  F: 8:00AM-10:00PM Sat: 9:00AM-6:00PM Sun: 10:00AM-6:00PM,,"Digital photo pickup, Printer cartridge refills, Pharmacy drive-thru, Cafe W: coffee, baked goods and more, Online ordering, Redbox DVD rental, Film roll processing, Shingles Vaccine"
10348,walgreens-455-long-hollow-pike-goodlettsville-tn-37072,(615) 859-6025,"455 Long Hollow Pike,Goodlettsville, TN 37072",36.329595,-86.696706,M F: 8:00AM-10:00PM Sat: 8:00AM-10:00PM Sun: 9:00AM-9:00PM,M  F: 9:00AM-9:00PM Sat: 9:00AM-6:00PM Sun: 10:00AM-6:00PM,,"Digital photo pickup, Pharmacy drive-thru, Online ordering, Redbox DVD rental, Film roll processing"
10349,walgreens-14418-w-meeker--suite-101-sun-city-west-az-85375,(623) 584-8501,"14418 W Meeker  Suite 101, Banner Del E Webb Medical Center,Sun City West, AZ 85375",33.6598168,-112.3728822,,M  F: 8:30AM-5:00PM Sat:      CLOSED       Sun:       CLOSED       ,,"Immunizations, Online ordering, Medication Compounding, Shingles Vaccine"
10350,walgreens-7109-s-jeffery-blvd-chicago-il-60649,(773) 324-1880,"7109 S Jeffery Blvd,Chicago, IL 60649",41.7658815,-87.576187,Open 24 Hours,Open 24 Hours,,"Open 24 hours, Digital photo pickup, Printer cartridge refills, Liquor department (Beer & Wine), Online ordering, Film roll processing, HIV Medication Support"
10351,walgreens-3596-alpine-ave-nw-walker-mi-49544,(616) 647-2260,"3596 Alpine Ave NW,Walker, MI 49544",43.028728,-85.688776,M F: 8:00AM-10:00PM Sat: 8:00AM-10:00PM Sun: 8:00AM-10:00PM,M  F: 8:00AM-10:00PM Sat: 9:00AM-6:00PM Sun: 10:00AM-6:00PM,,"Digital photo pickup, Printer cartridge refills, Pharmacy drive-thru, Liquor department (Beer & Wine), Immunizations, Online ordering, Redbox DVD rental, Film roll processing, Shingles Vaccine"
10352,walgreens-2500-mccain-blvd-north-little-rock-ar-72116,(501) 812-6228,"2500 McCain Blvd,North Little Rock, AR 72116",34.796773,-92.237718,M F: 8:00AM-10:00PM Sat: 8:00AM-10:00PM Sun: 8:00AM-10:00PM,M  F: 8:00AM-10:00PM Sat: 9:00AM-6:00PM Sun: 10:00AM-6:00PM,,"Digital photo pickup, Printer cartridge refills, Pharmacy drive-thru, Online ordering, Film roll processing"
10354,walgreens-2417-sycamore-drive-simi-valley-ca-93065,(805) 426-3722,"2417 Sycamore Drive,Simi Valley, CA 93065",34.279902,-118.744251,M F: 8:00AM-10:00PM Sat: 8:00AM-10:00PM Sun: 8:00AM-10:00PM,M  F: 8:00AM-9:00PM Sat: 9:00AM-6:00PM Sun: 10:00AM-6:00PM,,"Digital photo pickup, Pharmacy drive-thru, Cafe W: coffee, baked goods and more, Online ordering"
10356,walgreens-13680-n-kendall-dr-miami-fl-33186,(305) 752-6882,"13680 N Kendall Dr,Miami, FL 33186",25.6852308,-80.4161464,Open 24 Hours,Open 24 Hours,,"Open 24 hours, Digital photo pickup, Printer cartridge refills, Pharmacy drive-thru, Cafe W: coffee, baked goods and more, Online ordering, Redbox DVD rental, Film roll processing"
